lat,lon,spot_name,closest_water,closest_region,distance_km,country
-33.671782783644,18.407592773438,11Th Ave Melkbos Strand,South Atlantic Ocean,Atlantic Ocean,0.2,South Africa
33.595175061468,-78.980884552002,13Th Ave South Surfside,North Atlantic Ocean,Atlantic Ocean,0.42,United States
-38.2864,144.4677,13Th Beach,Bass Strait,Bass Strait,1.42,Australia
28.295557652054,-80.608985424042,13Th Street,North Atlantic Ocean,Atlantic Ocean,1.12,United States
30.506121716054,-9.6858966350555,14Th Km,North Atlantic Ocean,Atlantic Ocean,0.96,Morocco
32.958805616471,-117.26961135864,15Th St,North Pacific Ocean,Pacific Ocean,0.03,United States
-33.359011501838,18.154660463333,16 Mile Beach,South Atlantic Ocean,Atlantic Ocean,0,South Africa
30.335083520857,-87.114865779877,17Th Ave,Gulf of Mexico,Gulf of Mexico,0,United States
33.663424992738,-118.01432132721,17Th Street,North Pacific Ocean,Pacific Ocean,0,United States
41.487218449774,-71.291527748108,1St Beach,North Atlantic Ocean,Atlantic Ocean,0,United States
36.830412875926,-75.967771410942,1St Street Jetty,North Atlantic Ocean,Atlantic Ocean,0.82,United States
-8.707180455719,114.37447786331,20 20s,Indian Ocean,Indian Ocean,0,Indonesia
49.334964966094,-123.19472908974,29Th Street,Salish Sea,Salish Sea,0,Canada
33.683496610692,-78.885655403137,2Nd Avenue Pier,North Atlantic Ocean,Atlantic Ocean,0,United States
41.487748890187,-71.258418560028,2Nd Beach,North Atlantic Ocean,Atlantic Ocean,0,United States
-31.966744587332,152.59743690491,2Nd Corner,Tasman Sea,Tasman Sea,2.36,Australia
28.252735731286,-80.603331327438,2Nd Light,North Atlantic Ocean,Atlantic Ocean,1.3,United States
-31.845587214995,115.75018823147,2Nds,Geographe Bay,Geographe Bay,1.96,Australia
31.897257421069,-116.71371281147,3 Emes,North Pacific Ocean,Pacific Ocean,0,Mexico
36.961500196913,-122.1173286438,3 Mile,Monterey Bay,Monterey Bay,0,United States
-35.177614339396,138.46675515175,3 Poles Reef,Gulf St Vincent,Gulf St Vincent,1.06,Australia
-35.24670558569,150.54265022278,3 Way,Tasman Sea,Tasman Sea,0.68,Australia
32.795247488814,-79.766889810562,"35Th Street,Iop",North Atlantic Ocean,Atlantic Ocean,0,United States
33.615155376281,-117.93722391129,36Th Street,North Pacific Ocean,Pacific Ocean,0.28,United States
38.006066734238,128.7326592207,38Th Parallel,Sea of Japan,Pacific Ocean,1.77,South Korea
39.387917291121,-74.386324882507,38Th St Beach,North Atlantic Ocean,Atlantic Ocean,0,United States
-33.772762043212,18.444328308105,3De Steen,South Atlantic Ocean,Atlantic Ocean,0,South Africa
-31.833670075763,115.74690520763,3Rd Groyne,Geographe Bay,Geographe Bay,1.88,Australia
-1.9091219602854,99.310655593872,4 Bobs,Indian Ocean,Indian Ocean,0,Indonesia
36.965563579633,-122.12505340576,4 Mile,Monterey Bay,Monterey Bay,0,United States
19.735198843714,-155.02799034119,4 Miles,North Pacific Ocean,Pacific Ocean,0.54,United States
33.617299678724,-117.93889760971,40Th Street,North Pacific Ocean,Pacific Ocean,0.41,United States
7.2385158124997,-80.519651770592,411 Quatro-Once),North Pacific Ocean,Pacific Ocean,0,Panama
36.870935151143,-75.982003211975,42Nd St Va Beach,North Atlantic Ocean,Atlantic Ocean,0.76,United States
43.638792795902,10.28497338295,46,Tyrrhenian Sea,Mediterranean Sea,0,Italy
33.720658692791,-78.844730257988,48Th St Myrtle Beach,North Atlantic Ocean,Atlantic Ocean,0,United States
38.373230429205,-75.06695151329,48Th Street(Ocean City),North Atlantic Ocean,Atlantic Ocean,0.16,United States
-32.504749211233,115.73548436165,4Th Groyne,Geographe Bay,Geographe Bay,1.98,Australia
-2.7312133615029,-80.246887207031,5 1 2Km&8 1 2Km,Golfo De Guayaquil,Golfo De Guayaquil,0,Ecuador
26.331547281289,127.74185121059,5 Rocks,East China Sea,Pacific Ocean,1.43,Japan
33.623223036949,-117.94518470764,56Th St,North Pacific Ocean,Pacific Ocean,0.68,United States
39.221556798184,-74.635705947876,57Th Street,North Atlantic Ocean,Atlantic Ocean,0.27,United States
39.62155713954,-74.193077087402,58Th Street,North Atlantic Ocean,Atlantic Ocean,0,United States
39.564428398249,-74.233160018921,5Th Street Beach Haven,North Atlantic Ocean,Atlantic Ocean,0,United States
-33.978447519377,25.655876398087,6 Pillars,Indian Ocean,Indian Ocean,0,South Africa
39.64953,-74.17294,7 11,North Atlantic Ocean,Atlantic Ocean,0,United States
11.320374195181,-74.098470211029,7 Olas,Caribbean Sea,Caribbean Sea,1.19,Colombia
9.2442786704715,126.09146118164,7 Rocks,NA,NA,1.89,Philippines
30.296193427424,-81.389041543007,7Th Avenue,North Atlantic Ocean,Atlantic Ocean,0,United States
36.906794887097,-75.989180803299,81St Street,North Atlantic Ocean,Atlantic Ocean,0,United States
33.770211362159,-78.770309686661,8Th Ave n,North Atlantic Ocean,Atlantic Ocean,0.55,United States
6.2903422513069,-10.78841328621,8Th Street,North Atlantic Ocean,Atlantic Ocean,0,Liberia
40.22787,-73.99706,8Th Street Jetty,North Atlantic Ocean,Atlantic Ocean,1.29,United States
-35.037586537405,173.15380096436,90 Mile Beach,Tasman Sea,Tasman Sea,0,New Zealand
40.583330639749,-73.812053203583,92Nd Street,North Atlantic Ocean,Atlantic Ocean,0,United States
-26.387564033081,153.11654090881,A Bay,Coral Sea,Pacific Ocean,0,Australia
35.403165679424,-120.86955428124,A Beach,North Pacific Ocean,Pacific Ocean,1.26,United States
57.339215030548,12.065391540527,A Land,Kattegat,Kattegat,0,Sweden
42.454621116231,-8.8814163208008,A Lanzada,North Atlantic Ocean,Atlantic Ocean,0,Spain
41.390589886459,-8.775200843811,A Ver-o-Mar,North Atlantic Ocean,Atlantic Ocean,0,Portugal
-2.2784615120746,99.593939781189,Aarons,Indian Ocean,Indian Ocean,0,Indonesia
32.713912773621,-117.25699961185,Ab,North Pacific Ocean,Pacific Ocean,0,United States
21.302227031754,-157.89822220802,Abalolo Reef,North Pacific Ocean,Pacific Ocean,0,United States
33.737772743545,-118.37602257729,Abalone Cove,North Pacific Ocean,Pacific Ocean,0.34,United States
48.579247664664,-4.6327972412109,Aber Wrach Point,English Channel,Atlantic Ocean,0,France
51.585325889366,-3.8109683990479,Aberavon,Bristol Channel,Bristol Channel,2.42,United Kingdom
52.806497325082,-4.7035217285156,Aberdaron,Irish Sea,Irish Sea,0,United Kingdom
57.164639439826,-2.0793342590332,Aberdeen,North Sea,Atlantic Ocean,1.21,United Kingdom
8.4910697360278,-13.290882110596,Aberdeen Area Beach,North Atlantic Ocean,Atlantic Ocean,0,Sierra Leone
52.823797664671,-4.5067977905273,Abersoch,Irish Sea,Irish Sea,0,United Kingdom
38.1761,-8.7821583333333,Aberta a-Nova,North Atlantic Ocean,Atlantic Ocean,1.9,Portugal
37.173294832662,25.480148792267,Abrami Beach,Aegean Sea,Mediterranean Sea,0,Greece
-3.8276018092756,-32.400580644608,Abras,South Atlantic Ocean,Atlantic Ocean,0,Brazil
-28.92683,113.97929,Abrolhos Islands,Indian Ocean,Indian Ocean,0,Australia
16.82125,-99.90168,Acapulco,North Pacific Ocean,Pacific Ocean,0,Mexico
23.024253,-109.716117,Acapulquito,North Pacific Ocean,Pacific Ocean,2.3,Mexico
13.072674908698,-59.590036869049,Accra Beach-Rockley Beach,Caribbean Sea,Caribbean Sea,0,Barbados
32.85345,-17.21588,Achadas Da Cruz,North Atlantic Ocean,Atlantic Ocean,0,Portugal
28.74775223066,-13.933839797974,Acid Drop,North Atlantic Ocean,Atlantic Ocean,0,Spain
-34.411764714983,150.90359508991,Acids,Tasman Sea,Tasman Sea,0.97,Australia
36.096256229045,28.085389137268,Acropolis,Mediterranean Sea,Mediterranean Sea,0,Greece
54.48927378547,-0.59042930603027,Admirals,North Sea,Atlantic Ocean,0,United Kingdom
2.18484,73.09853,Adonis,Laccadive Sea,Indian Ocean,0,Maldives
38.803262951679,-9.4853210449219,Adraga,North Atlantic Ocean,Atlantic Ocean,0,Portugal
42.83333,12.83333,Adria,Adriatic Sea,Mediterranean Sea,86.57,Italy
-27.930720752659,15.67551612854,Affenrucken Point,South Atlantic Ocean,Atlantic Ocean,0,Namibia
41.78026,-8.87116,Afife,North Atlantic Ocean,Atlantic Ocean,1.19,Portugal
1.2597213423289,97.229862213135,Afulu,Indian Ocean,Indian Ocean,0,Indonesia
30.41186,-9.60411,Agadir,North Atlantic Ocean,Atlantic Ocean,3.51,Morocco
36.806089202237,21.721343994141,Agamemnon Kouloura Island,Ionian Sea,Mediterranean Sea,0,Greece
31.127905409999,29.773292541504,Agami,Mediterranean Sea,Mediterranean Sea,0,Egypt
-13.775086552996,-172.28722214699,Aganoa,South Pacific Ocean,Pacific Ocean,1.26,Samoa
44.653634735462,-124.06293869019,Agate Beach,North Pacific Ocean,Pacific Ocean,0,United States
44.672269464147,-124.06802415848,Agate Beach North,North Pacific Ocean,Pacific Ocean,0,United States
56.78117,8.22938,Agger,North Sea,Atlantic Ocean,0,Denmark
35.196059014707,26.150853931904,Agia Fotia,Sea of Crete,Mediterranean Sea,2.11,Greece
37.805079445237,23.851211071014,Agios Dimitrios,Sea of Crete,Mediterranean Sea,0.66,Greece
39.714977900366,19.681148529053,Agios Giorgios-Corfu,Ionian Sea,Mediterranean Sea,1.24,Greece
41.175133104235,29.624741077423,Aglayankaya,Black Sea,Black Sea,1.54,Turkey
-24.2082987206,151.90894603729,Agnes Water,Coral Sea,Pacific Ocean,0,Australia
37.215616932872,21.597098708153,Agrili,Ionian Sea,Mediterranean Sea,0.16,Greece
37.71656,-25.45562,Agua d Alto,North Atlantic Ocean,Atlantic Ocean,0,Portugal
41.44399,-8.77935,Agucadoura,North Atlantic Ocean,Atlantic Ocean,0,Portugal
42.74047,-8.97065,Aguieira,North Atlantic Ocean,Atlantic Ocean,0,Spain
43.555017530652,-6.1167132854462,Aguilar,Bay of Biscay,Atlantic Ocean,4.67,Spain
9.7226987535235,-84.653928279877,Agujas,North Pacific Ocean,Pacific Ocean,1.06,Costa Rica
-33.398960177996,-71.70168042183,Ahogados,South Pacific Ocean,Pacific Ocean,0.55,Chile
42.100903538971,27.94314622879,Ahtony,Black Sea,Black Sea,0,Bulgaria
-21.03700245061,55.216770172119,Aigrettes Left,Indian Ocean,Indian Ocean,0,France
-21.034471454763,55.218060314655,Aigrettes Right,Indian Ocean,Indian Ocean,0,France
41.23434893312,1.8285799026489,Aiguadolc,Balearic Sea,Mediterranean Sea,0,Spain
52.984100257323,-9.438929557801,Aileens,North Atlantic Ocean,Atlantic Ocean,0,Ireland
33.58397348265,-7.6927015185356,Ain Diab Porte 15,North Atlantic Ocean,Atlantic Ocean,1,Morocco
35.7377723171548,-0.735901594161987,Ain El Turk,Mediterranean Sea,Mediterranean Sea,0.25,Algeria
-8.74519,115.15983,Airport,Selat Bali,Selat Bali,2.13,Indonesia
17.907141018684,-62.839522361755,Airport Left,Caribbean Sea,Caribbean Sea,0,France
-0.70290051573316,73.1715631485,Airport Right,Indian Ocean,Indian Ocean,0,Maldives
-41.337195167074,174.80711460114,Airport Rights,Cook Strait,Cook Strait,0,New Zealand
-8.7451238820147,115.15032291412,Airports,Selat Bali,Selat Bali,1.09,Indonesia
37.806271187615,-8.7973852008581,Aivados,North Atlantic Ocean,Atlantic Ocean,0.93,Portugal
43.381970926981,-3.0167770385742,Aizkorri,Bay of Biscay,Atlantic Ocean,0.79,Spain
43.498915778885,-3.61323595047,Ajo,Bay of Biscay,Atlantic Ocean,1.92,Spain
34.6,137.2,Akabane Long Beach,Philippine Sea,Pacific Ocean,0,Japan
31.39304689477,131.07247352601,Akaehama,Philippine Sea,Pacific Ocean,0,Japan
-27.939806072151,153.43377113342,Akkorokamui,Coral Sea,Pacific Ocean,0.19,Australia
43.620357021884,51.189225195265,Aktau,Caspian Sea,Caspian Sea,0.58,Kazakhstan
-12.158970041003,-77.027689218521,Ala Moana,South Pacific Ocean,Pacific Ocean,1.59,Peru
21.280876928092,-157.84389138222,Ala Moana Bowls,North Pacific Ocean,Pacific Ocean,0,United States
21.290653925976,-157.85409986973,Ala Moana Courts,North Pacific Ocean,Pacific Ocean,0,United States
30.270909835268,-87.559399008751,Alabama Point,Gulf of Mexico,Gulf of Mexico,0,United States
38.239056512811,26.310625076294,Alacati,Aegean Sea,Mediterranean Sea,0,Turkey
36.539674164695,32.023429870605,Alanya Keykubat,Mediterranean Sea,Mediterranean Sea,0.49,Turkey
44.004966212938,8.1728249788284,Alassio,Ligurian Sea,Mediterranean Sea,0,Italy
-34.01023007159,24.919867515564,Albatross,Indian Ocean,Indian Ocean,2.79,South Africa
44.041267596425,8.2237815856934,Albenga,Ligurian Sea,Mediterranean Sea,0,Italy
37.08653,-8.24948,Albufeira,North Atlantic Ocean,Atlantic Ocean,0.21,Portugal
-26.67079655546,153.10962617397,Alexandra Headlands,Coral Sea,Pacific Ocean,1.65,Australia
-37.993862916164,-57.542631626129,Alfonsina,South Atlantic Ocean,Atlantic Ocean,1.44,Argentina
0.19355212618325,6.7029476165771,Alfonsita,Gulf of Guinea,Atlantic Ocean,0.96,São Tomé & Príncipe
42.608695487162,8.8683700561523,Algajola,Mediterranean Sea,Mediterranean Sea,1.12,France
32.119226378654,-116.88291527331,Alisitos,North Pacific Ocean,Pacific Ocean,0.42,Mexico
40.236327698893,-73.994915485382,Allenhurst,North Atlantic Ocean,Atlantic Ocean,1.39,United States
42.307022535158,-70.881943702698,Allerton Point,Massachusetts Bay,Massachusetts Bay,0,United States
28.572066666667,-16.192616666667,Almaciga,North Atlantic Ocean,Atlantic Ocean,0,Spain
39.37982,-9.31212,Almagreira,North Atlantic Ocean,Atlantic Ocean,1.29,Portugal
35.176781239347,25.709713697433,Almiros,Sea of Crete,Mediterranean Sea,2.42,Greece
62.488538960577,5.9666061401367,Alnes Lighthouse(Godoy),Norwegian Sea,Atlantic Ocean,0,Norway
41.134403262325,1.3844275474548,Altafulla,Balearic Sea,Mediterranean Sea,0,Spain
46.994930103778,8.5987758636475,Alter Steinbeisser,Ligurian Sea,Mediterranean Sea,286.21,Switzerland
-37.873316282033,144.83029872179,Altona Pier,Bass Strait,Bass Strait,5.37,Australia
37.17005,-7.49794,Altura,North Atlantic Ocean,Atlantic Ocean,0.39,Portugal
37.12255,-8.59,Alvor,North Atlantic Ocean,Atlantic Ocean,0.31,Portugal
8.37376,78.06723,Alwars,Gulf of Mannar,Gulf of Mannar,0,India
38.317955957945,21.426086425781,Alykes,Ionian Sea,Mediterranean Sea,0,Greece
37.16709,-8.9032,Amado,North Atlantic Ocean,Atlantic Ocean,1.91,Portugal
-18.859285337885,49.149677753448,Ambila Lamentsa,Indian Ocean,Indian Ocean,2.36,Madagascar
49.325010107876,-123.15171718597,Ambleside Park,Salish Sea,Salish Sea,0,Canada
45.485274460199,-1.1524701118469,Amelie,Bay of Biscay,Atlantic Ocean,0,France
38.109235478584,20.506925582886,Ammes Beach,Ionian Sea,Mediterranean Sea,0,Greece
39.24029,20.48012,Ammoudia,Ionian Sea,Mediterranean Sea,0,Greece
37.3508,-8.8446,Amoreira,North Atlantic Ocean,Atlantic Ocean,0.3,Portugal
41.669321477922,-8.8240814208984,Amorosa,North Atlantic Ocean,Atlantic Ocean,0,Portugal
39.237704574584,20.478000640869,Amoudia Left,Ionian Sea,Mediterranean Sea,0,Greece
48.583449518456,-4.6751546859741,Anael,English Channel,Atlantic Ocean,0,France
22.147612069583,-159.30501937864,Anahola Bay,North Pacific Ocean,Pacific Ocean,0.07,United States
36.092667096616,32.935810089111,Anamur,Mediterranean Sea,Mediterranean Sea,0,Turkey
-38.23180909926,178.31149578094,Anaura Bay,South Pacific Ocean,Pacific Ocean,2.77,New Zealand
30.54603,-9.72474,Anchor Point,North Atlantic Ocean,Atlantic Ocean,0.32,Morocco
20.767871515293,-105.51999092102,Anclote,North Pacific Ocean,Pacific Ocean,0,Mexico
28.203675373165,-82.825241088867,Anclote Island,Gulf of Mexico,Gulf of Mexico,0,United States
33.722858369584,-118.08087229729,Anderson Street,North Pacific Ocean,Pacific Ocean,0.06,United States
43.95048,8.14831,Andora,Ligurian Sea,Mediterranean Sea,0,Italy
36.281082371641,-121.85778737068,Andrew Molera State Beach,North Pacific Ocean,Pacific Ocean,0,United States
43.41032,-4.70874,Andrin,Bay of Biscay,Atlantic Ocean,3.6,Spain
37.840546585318,24.93754863739,Andros Hora),Aegean Sea,Mediterranean Sea,1.6,Greece
-16.972711518104,149.90719199181,Andys Peak,Coral Sea,Pacific Ocean,0,Australia
6.2288831603816,1.6067987680435,Aneho Beach,Bight of Benin,Bight of Benin,1.7,Togo
-38.415644240658,144.1865336895,Anglesea,Bass Strait,Bass Strait,0.39,Australia
43.494588519106,-1.5477848052979,Anglet Chambre d Amour,Bay of Biscay,Atlantic Ocean,1.1,France
43.526521996549,-1.52512550354,Anglet La Barre,Bay of Biscay,Atlantic Ocean,0.19,France
43.511990624463,-1.5354359149933,Anglet La Madrague,Bay of Biscay,Atlantic Ocean,0.6,France
43.499272316475,-1.5442811697721,Anglet Le Club,Bay of Biscay,Atlantic Ocean,0.97,France
43.527968873805,-1.5265256166458,Anglet Le Furoncle,Bay of Biscay,Atlantic Ocean,0,France
43.523254726694,-1.5264129638672,Anglet Les Cavaliers,Bay of Biscay,Atlantic Ocean,0.35,France
43.501773467811,-1.5419054031373,Anglet Les Sables d or,Bay of Biscay,Atlantic Ocean,0.94,France
43.504988304257,-1.5398307144642,Anglet Marinella,Bay of Biscay,Atlantic Ocean,0.84,France
-29.48318,153.36592,Angourie,Coral Sea,Pacific Ocean,0,Australia
-29.486528293482,153.36519241333,Angourie Lefts,Coral Sea,Pacific Ocean,0,Australia
-29.482194837303,153.36609363556,Angourie Point,Coral Sea,Pacific Ocean,0,Australia
-27.74803760412,15.54621219635,Angras Juntas Left,South Atlantic Ocean,Atlantic Ocean,0,Namibia
17.843985205741,73.087450146575,Anjarle,Arabian Sea,Indian Ocean,1.62,India
37.005414377655,-25.156561732292,Anjos,North Atlantic Ocean,Atlantic Ocean,0,Portugal
-40.880654514106,144.70294609666,Ann Bay,Great Australian Bight,Great Australian Bight,2.01,Australia
27.538679957346,-82.744345664978,Anna Maria Island,Gulf of Mexico,Gulf of Mexico,0,United States
27.532781585779,-82.743186950684,Anna Maria Island-Beach Streets,Gulf of Mexico,Gulf of Mexico,0,United States
36.863141432953,7.7824401855469,Annaba,Mediterranean Sea,Mediterranean Sea,2.08,Algeria
-34.16253,24.83278,Anne Avenue,Indian Ocean,Indian Ocean,0,South Africa
-34.162954490049,24.833393096924,Anne Avenue(St Francis Bay),Indian Ocean,Indian Ocean,0,South Africa
-26.778449286564,153.14012289047,Anne Street Reef,Coral Sea,Pacific Ocean,0,Australia
52.134330991635,-7.2829055786133,Annestown,North Atlantic Ocean,Atlantic Ocean,0,Ireland
37.114472889827,-122.31130599976,Ano Nuevo,North Pacific Ocean,Pacific Ocean,0,United States
-4.3508616221605,55.848205089569,Anse Banane,Indian Ocean,Indian Ocean,0,Seychelles
16.472715586517,-61.511936187744,Anse Bertrand,Caribbean Sea,Caribbean Sea,0.09,France
-4.7593649789947,55.52166223526,Anse Bourgainville,Indian Ocean,Indian Ocean,0,Seychelles
14.807828116388,-61.014740467072,Anse Charpentier(Right),Caribbean Sea,Caribbean Sea,0.55,France
-4.3670366994987,55.851702690125,Anse Cocos,Indian Ocean,Indian Ocean,0,Seychelles
14.844004427128,-61.21946811676,Anse Couleuvre,Caribbean Sea,Caribbean Sea,0,France
17.911398157806,-62.843234539032,Anse Des Cayes,Caribbean Sea,Caribbean Sea,0,France
17.917166060902,-62.847145199776,Anse Des Lezards,Caribbean Sea,Caribbean Sea,0,France
49.668836050314,-1.4872097969055,Anse Du Brick,English Channel,Atlantic Ocean,1.81,France
48.09459164291,-4.306640625,Anse Du Ris,Bay of Biscay,Atlantic Ocean,6.51,France
-4.7605196970203,55.484089851379,Anse Gaulette,Indian Ocean,Indian Ocean,0,Seychelles
-4.309384657439,55.683506727219,Anse Kerlan,Indian Ocean,Indian Ocean,0,Seychelles
-4.3376602763675,55.833849906921,Anse Patates,Indian Ocean,Indian Ocean,0,Seychelles
-4.7470906343883,55.521039962769,Anse Royale,Indian Ocean,Indian Ocean,0,Seychelles
16.326811493739,-61.305288076401,Anse Salabouelle,Caribbean Sea,Caribbean Sea,0.64,France
-4.3398526716275,55.829772949219,Anse Severe,Indian Ocean,Indian Ocean,0,Seychelles
-4.7446368084524,55.465357303619,Anse Soleil,Indian Ocean,Indian Ocean,0,Seychelles
49.706571106456,-1.8890959024429,Anse St Martin,English Channel,Atlantic Ocean,0,France
14.406666601156,-60.848722457888,Anse Trabaud,Caribbean Sea,Caribbean Sea,0,France
16.240716490396,-61.321134567261,Anse a La Barque,Caribbean Sea,Caribbean Sea,0.99,France
16.333483306775,-61.332120895386,Anse a La Bouelle,Caribbean Sea,Caribbean Sea,1.49,France
42.414633235653,11.27744436264,Ansedonia Il Cartello,Tyrrhenian Sea,Mediterranean Sea,0,Italy
-31.541089879586,159.07104492188,Anson Bay,South Pacific Ocean,Pacific Ocean,0,Australia
-29.92419,31.01922,Ansteys,Indian Ocean,Indian Ocean,0,South Africa
-29.925611712635,31.019167900085,Ansteys Beach,Indian Ocean,Indian Ocean,0,South Africa
36.84716096681,30.808721780777,Antalya,Mediterranean Sea,Mediterranean Sea,0,Turkey
0.29636802239488,6.7605037987232,Antenas,Gulf of Guinea,Atlantic Ocean,0,São Tomé & Príncipe
16.434191729997,-61.539659500122,Antigues Cape,Caribbean Sea,Caribbean Sea,0,France
0.2845,73.44567,Antiques,Laccadive Sea,Indian Ocean,0,Maldives
49.74052691281,-119.76136207581,Antlers Beach,Salish Sea,Salish Sea,228.69,Canada
19.06351,-95.98712,Anton Lizardo,Bahia De Campeche,Bahia De Campeche,0,Mexico
18.37198,-67.2521,Antonios,Caribbean Sea,Caribbean Sea,0,United States
30.450301516492,-9.663119316101,Anza,North Atlantic Ocean,Atlantic Ocean,0,Morocco
-38.538053729395,145.33329606056,Anzacs,Bass Strait,Bass Strait,0,Australia
31.805133175948,131.46720886233,Aoshima Beach Break,Philippine Sea,Pacific Ocean,0.41,Japan
31.802719931943,131.47793769837,Aoshima Reef,Philippine Sea,Pacific Ocean,0,Japan
33.762451830623,-78.78128528595,Apache Pier,North Atlantic Ocean,Atlantic Ocean,0.41,United States
18.360757424784,121.62693500519,Aparri,South China Sea,Pacific Ocean,0.31,Philippines
-6.6146481192023,105.13066291809,Apocalypse,Indian Ocean,Indian Ocean,0,Indonesia
-38.750401800229,143.67053031921,Apollo Bay,Bass Strait,Bass Strait,2.24,Australia
37.17912,25.55269,Apollonas,Aegean Sea,Mediterranean Sea,0.97,Greece
37.180013938902,25.55419921875,Apollonas Naxos,Aegean Sea,Mediterranean Sea,0.83,Greece
32.194108801119,34.806543588638,Apolonia,Mediterranean Sea,Mediterranean Sea,0.31,Israel
-39.054217912175,174.06184673309,Aquatic Centre,Tasman Sea,Tasman Sea,1.73,New Zealand
47.826130940833,-4.3695116043091,Ar Lois,Bay of Biscay,Atlantic Ocean,0,France
-10.987673858847,-37.041145563126,Aracaju,South Atlantic Ocean,Atlantic Ocean,0,Brazil
-34.622216618832,-54.148693084717,Arachania,South Atlantic Ocean,Atlantic Ocean,2.12,Uruguay
15.687170643174,73.702812194824,Arambol,Arabian Sea,Indian Ocean,0.07,India
-45.77623,170.71079,Aramoana,South Pacific Ocean,Pacific Ocean,3.2,New Zealand
-0.68851721139236,-48.483266830444,Araruna,Baia De Marajo,Baia De Marajo,0,Brazil
12.620069905345,-70.053977966309,Arashi,Caribbean Sea,Caribbean Sea,0,Netherlands
-39.419751182341,173.80169391632,Arawahata Road,Tasman Sea,Tasman Sea,0,New Zealand
45.84688799709,-123.96208763123,Arcadia,North Pacific Ocean,Pacific Ocean,0,United States
46.428266448388,30.768488645554,Arcadia,Black Sea,Black Sea,0,Ukraine
-24.846954777011,152.47800350189,Archies,Coral Sea,Pacific Ocean,0,Australia
51.803340887186,-10.175635814667,Ardkeragh,North Atlantic Ocean,Atlantic Ocean,2.54,Ireland
39.26324,-9.33566,Areia Branca,North Atlantic Ocean,Atlantic Ocean,1.63,Portugal
37.817785166068,-25.548534393311,Areias,North Atlantic Ocean,Atlantic Ocean,1.98,Portugal
43.39936,-3.32272,Arenillas,Bay of Biscay,Atlantic Ocean,3.4,Spain
32.302332616174,34.840693473816,Argamans Beach,Mediterranean Sea,Mediterranean Sea,0.63,Israel
42.567304804259,3.0463242530823,Argeles Sur-Mer,Golfe Du Lion,Golfe Du Lion,4.51,France
27.755263103826,-15.679008364677,Arguineguin,North Atlantic Ocean,Atlantic Ocean,0,Spain
-18.4803,-70.3325,Arica,South Pacific Ocean,Pacific Ocean,1.94,Chile
-2.0248393153862,99.565315246582,Ariks,Indian Ocean,Indian Ocean,0,Indonesia
42.336452631426,27.732646465302,Arkutino,Black Sea,Black Sea,0,Bulgaria
43.82804,7.84623,Arma Di Taggia,Ligurian Sea,Mediterranean Sea,0,Italy
-27.74161875553,-48.508114814758,Armacao,South Atlantic Ocean,Atlantic Ocean,1.71,Brazil
-10.979490259192,122.84337472943,Army Camp,Indian Ocean,Indian Ocean,0,Indonesia
43.911590055914,-1.376895904541,Arna Plage,Bay of Biscay,Atlantic Ocean,0.19,France
34.120722501063,-119.1592168808,Arnold,North Pacific Ocean,Pacific Ocean,0,United States
-22.98938,-43.191604,Arpoador,South Atlantic Ocean,Atlantic Ocean,0,Brazil
-22.94266505616,-42.030054330826,Arraial Do Cabo,South Atlantic Ocean,Atlantic Ocean,0,Brazil
-30.058694253064,153.20348739624,Arrawarra Point,Tasman Sea,Tasman Sea,0.71,Australia
29.128115550847,-13.464206457138,Arrieta,North Atlantic Ocean,Atlantic Ocean,0.62,Spain
37.29398,-8.86558,Arrifana,North Atlantic Ocean,Atlantic Ocean,0.56,Portugal
43.35813671795,-3.0222702026367,Arrigunaga,Bay of Biscay,Atlantic Ocean,2.4,Spain
-28.993802278359,-49.415302276611,Arroio Do Silva,South Atlantic Ocean,Atlantic Ocean,0.5,Brazil
19.317223926365,-104.94571387767,Arroyo Seco,North Pacific Ocean,Pacific Ocean,0,Mexico
-32.01574505646,115.74842333794,Artificial Reef,Geographe Bay,Geographe Bay,1.29,Australia
41.30336,13.00651,Artiglieria,Tyrrhenian Sea,Mediterranean Sea,0,Italy
6.8400857398803,81.839475631714,Arugam Bay,Indian Ocean,Indian Ocean,0.4,Sri Lanka
57.336250446713,12.093887329102,Asa Aasa),Kattegat,Kattegat,0,Sweden
40.228136953567,-73.99530172348,Asbury Park,North Atlantic Ocean,Atlantic Ocean,1.16,United States
12.625095278624,-87.354440689087,Aserradores,North Pacific Ocean,Pacific Ocean,0,Nicaragua
31.817389186786,34.640128612518,Ashdod Hshover,Mediterranean Sea,Mediterranean Sea,0.99,Israel
43.956599301375,39.263682961464,Ashe,Black Sea,Black Sea,1.42,Russia
-12.819501030525,-76.555910110474,Asia Del Mar,South Pacific Ocean,Pacific Ocean,0.23,Peru
-12.778321565438,-76.608180999756,Asia Palmas,South Pacific Ocean,Pacific Ocean,1.19,Peru
36.618016332942,-121.94275438786,Asilomar,Monterey Bay,Monterey Bay,0,United States
-37.053379021789,149.9149274826,Aslings Beach,Tasman Sea,Tasman Sea,3.27,Australia
38.206892714171,-75.146741867065,Assateague,North Atlantic Ocean,Atlantic Ocean,0,United States
5.1256530269629,-3.2908344268799,Assinie,Gulf of Guinea,Atlantic Ocean,0,Côte d’Ivoire
5.151469719002,-3.4291076660156,Assouinde Beach,Gulf of Guinea,Atlantic Ocean,0.71,Côte d’Ivoire
11.512406513805,-86.17169380188,Astillero,North Pacific Ocean,Pacific Ocean,1.05,Nicaragua
-24.007737505859,-46.266474723816,Asturias,South Atlantic Ocean,Atlantic Ocean,0,Brazil
0.86737180600208,97.333545684814,Asu,Indian Ocean,Indian Ocean,0,Indonesia
11.933988888889,-86.620797222222,Asunchillo,North Pacific Ocean,Pacific Ocean,0,Nicaragua
0.8765546261554,-79.8486328125,Atacames,North Pacific Ocean,Pacific Ocean,1.46,Ecuador
36.42022,136.41688,Ataka,Sea of Japan,Pacific Ocean,0.23,Japan
-26.915162996298,-48.639360666275,Atalaia,South Atlantic Ocean,Atlantic Ocean,2.81,Brazil
33.928904251145,136.14858627319,Atashika,Philippine Sea,Pacific Ocean,1.38,Japan
37.910397027122,24.839079380035,Ateni Beach,Aegean Sea,Mediterranean Sea,1.38,Greece
41.20848,-8.71561,Aterro,North Atlantic Ocean,Atlantic Ocean,0,Portugal
34.700555555556,-76.740833333333,Atlantic Beach,North Atlantic Ocean,Atlantic Ocean,0,United States
28.049541964101,-16.529799699783,Atlantic Playa,North Atlantic Ocean,Atlantic Ocean,0.83,Spain
-29.78506,-50.02555,Atlantida Pier,South Atlantic Ocean,Atlantic Ocean,0.25,Brazil
60.143774774572,29.92635011673,Atlantis,Gulf of Finland,Gulf of Finland,3.96,Russia
48.009276381517,-4.5475673675537,Audierne La Gamelle,Bay of Biscay,Atlantic Ocean,0.68,France
48.009400316321,-4.5407652854919,Audierne La Jetee,Bay of Biscay,Atlantic Ocean,0.89,France
50.821580525157,1.5920412540436,Audreselles,English Channel,Atlantic Ocean,0,France
-34.324583089158,115.17954826355,Augusta Rivermouth,Indian Ocean,Indian Ocean,0,Australia
11.98445,79.84876,Auroville,Bay of Bengal,Indian Ocean,0.86,India
-34.306736188612,150.93571722507,Austinmer Beach,Tasman Sea,Tasman Sea,1.85,Australia
-34.307852838836,150.93586206436,Austinmer Pools,Tasman Sea,Tasman Sea,1.8,Australia
-33.983717,25.670797,Avalanche,Indian Ocean,Indian Ocean,0,South Africa
32.75212725693,-117.25529909133,Avalanche,North Pacific Ocean,Pacific Ocean,0.47,United States
21.595267725663,-158.11472609638,Avalanche Oahu,North Pacific Ocean,Pacific Ocean,1,United States
-33.63465,151.33304,Avalon,Tasman Sea,Tasman Sea,0,Australia
39.102607211263,-74.709123373032,Avalon 15Th Street,North Atlantic Ocean,Atlantic Ocean,0,United States
39.09266554485,-74.718511104584,Avalon 30Th Street,North Atlantic Ocean,Atlantic Ocean,0,United States
-32.592391872321,115.63802361488,Avalon Point,Geographe Bay,Geographe Bay,0,Australia
-14.936295009734,-147.71006584168,"Avatoru Pass,Rangiroa",South Pacific Ocean,Pacific Ocean,337.24,France
-29.918544676663,-71.276700496674,Avenida Del Mar,South Pacific Ocean,Pacific Ocean,6.68,Chile
-23.180132370708,-44.304428100586,Aventureiro,South Atlantic Ocean,Atlantic Ocean,0,Brazil
43.293680567165,-8.740257024765,Avino,North Atlantic Ocean,Atlantic Ocean,3.24,Spain
18.45119,-65.95713,Aviones,North Atlantic Ocean,Atlantic Ocean,0.31,United States
-33.469629428154,151.43764972687,Avoca Point,Tasman Sea,Tasman Sea,0.7,Australia
4.8581504642157,-2.2458028793335,Axim,Gulf of Guinea,Atlantic Ocean,0,Ghana
-1.6798949897108,-80.815773010254,Ayampe,South Pacific Ocean,Pacific Ocean,0.13,Ecuador
46.131999046876,-1.1487901210785,Aytre Lopette Beach,Bay of Biscay,Atlantic Ocean,0,France
30.682475602235,131.06303885577,Azako,Philippine Sea,Pacific Ocean,0.1,Japan
41.33752,-8.74159,Azurara,North Atlantic Ocean,Atlantic Ocean,0.81,Portugal
-8.8269722080643,125.05249142646,B Point,Savu Sea,Savu Sea,0.63,Timor-Leste
21.284615856797,-157.84955620766,Baby Haleiwas,North Pacific Ocean,Pacific Ocean,0,United States
21.315820705688,-157.66544669867,Baby Makapuu,North Pacific Ocean,Pacific Ocean,2.1,United States
46.208790665526,6.1634320020676,Baby Plage,Ligurian Sea,Mediterranean Sea,279.2,Switzerland
36.772511215315,31.390857696533,Baby Point Side,Mediterranean Sea,Mediterranean Sea,0,Turkey
-28.794139286043,114.61177825928,Back Beach,Indian Ocean,Indian Ocean,1.18,Australia
-39.06826338817,174.0150743723,Back Beach,Tasman Sea,Tasman Sea,0.96,New Zealand
53.481840266285,-6.1113810539246,Back Beach,Irish Sea,Irish Sea,0,Ireland
-32.49542915368,152.40775108337,Back Bommie,Tasman Sea,Tasman Sea,0,Australia
32.835516251146,34.979524612427,Back Door Haifa),Mediterranean Sea,Mediterranean Sea,0,Israel
-32.681718857913,152.1356678009,Back Jimmys,Tasman Sea,Tasman Sea,0.06,Australia
21.6641,-158.05235,Backdoor,North Pacific Ocean,Pacific Ocean,0,United States
-33.279260933822,151.57284915447,Backdoor,Tasman Sea,Tasman Sea,0,Australia
-22.938421471373,-42.472313046455,Backdoor,South Atlantic Ocean,Atlantic Ocean,0.29,Brazil
37.333194071459,13.393814563751,Backdoor,Mediterranean Sea,Mediterranean Sea,0,Italy
-28.843470765934,153.607878685,Backsides,Coral Sea,Pacific Ocean,0,Australia
8.3914597996759,-83.279113769531,Backwash,North Pacific Ocean,Pacific Ocean,0,Costa Rica
29.811273463702,-81.261041164398,Backyard Og(Ocean Gallery),North Atlantic Ocean,Atlantic Ocean,0.66,United States
21.68088,-158.03766,Backyards,North Pacific Ocean,Pacific Ocean,0,United States
40.982101130655,8.8536071777344,Badesi,Mediterranean Sea,Mediterranean Sea,0,Italy
9.2311474526738,126.05833053589,Badjang,NA,NA,4.58,Philippines
17.9243,120.4169,Badoc Island Lefts,South China Sea,Pacific Ocean,0,Philippines
17.92041,120.43957,Badoc Point,South China Sea,Pacific Ocean,0.23,Philippines
38.692226039287,-9.3661746382713,Bafureira,North Atlantic Ocean,Atlantic Ocean,0,Portugal
14.1375744263,122.98421859741,Bagasbas Beach,Philippine Sea,Pacific Ocean,0,Philippines
-30.078940183934,30.872569084167,Baggies,Indian Ocean,Indian Ocean,0.02,South Africa
43.519613846119,10.312685966492,Bagni Fiume(Livorno),Tyrrhenian Sea,Mediterranean Sea,0,Italy
43.496830016122,10.320453643799,Bagni Roma,Tyrrhenian Sea,Mediterranean Sea,0,Italy
35.951920450497,14.445390701294,Bahar Ic-Caghaq,Mediterranean Sea,Mediterranean Sea,0,Malta
12.11603331326,109.19616222382,"Bai Dai Beach,Nha Trang",South China Sea,Pacific Ocean,2.02,Vietnam
39.366487557215,-9.3558025360107,Baia,North Atlantic Ocean,Atlantic Ocean,0,Portugal
38.793764215381,-27.185904979706,Baia Das Quatro Ribeiras,North Atlantic Ocean,Atlantic Ocean,0.22,Portugal
-6.3669937103283,-35.014801025391,Baia Formosa,South Atlantic Ocean,Atlantic Ocean,1.25,Brazil
48.047791891609,-4.7066974639893,Baie Des Trepasses,Bay of Biscay,Atlantic Ocean,0,France
41.45568963371,-71.311976909637,Baileys Beach,North Atlantic Ocean,Atlantic Ocean,0,United States
-34.112337526938,18.466687202454,Baileys Cottage,South Atlantic Ocean,Atlantic Ocean,2.58,South Africa
-33.179801304273,134.36931610107,Baird Bay Reef,Great Australian Bight,Great Australian Bight,0,Australia
38.791288984624,-27.12751865387,Baixa Da Vila Nova,North Atlantic Ocean,Atlantic Ocean,0,Portugal
32.419503,-117.09575,Baja Malibu,North Pacific Ocean,Pacific Ocean,0,Mexico
9.858852323208,-84.701156616211,Bajamar,North Pacific Ocean,Pacific Ocean,0,Costa Rica
28.5572,-16.34035,Bajamar,North Atlantic Ocean,Atlantic Ocean,0,Spain
-33.979237,25.655675,Baked Beans,Indian Ocean,Indian Ocean,0,South Africa
41.508230212111,-71.069033145905,Bakers Beach,North Atlantic Ocean,Atlantic Ocean,0,United States
43.43057,-2.80442,Bakio,Bay of Biscay,Atlantic Ocean,1.43,Spain
-8.79383,115.12201,Balangan,Selat Bali,Selat Bali,0.18,Indonesia
0.98453683098455,-79.676413536072,Balao,North Pacific Ocean,Pacific Ocean,0,Ecuador
-4.6675854681255,-81.325360536575,Balconies,South Pacific Ocean,Pacific Ocean,1.18,Peru
33.851314331555,-77.98885345459,Bald Head Island-Point,North Atlantic Ocean,Atlantic Ocean,0,United States
-19.11020232485,146.86938643456,Balding Bay,Coral Sea,Pacific Ocean,0,Australia
20.914704557826,-156.39304161072,Baldwin Beach,North Pacific Ocean,Pacific Ocean,1.82,United States
39.37365,-9.33825,Baleal,North Atlantic Ocean,Atlantic Ocean,0,Portugal
39.361477491336,-9.3556308746338,Baleal Sul,North Atlantic Ocean,Atlantic Ocean,0,Portugal
-23.7776,-45.670216666667,Baleia,South Atlantic Ocean,Atlantic Ocean,0,Brazil
15.753927728168,121.56784057617,Baler,Philippine Sea,Pacific Ocean,3.17,Philippines
-33.97281561771,18.37050318718,Bali Bay,South Atlantic Ocean,Atlantic Ocean,1.97,South Africa
-8.7848235413657,115.23164749146,Bali Tropic,Bali Sea,Bali Sea,0.86,Indonesia
-8.5242814660468,114.98971223831,Balian,Selat Bali,Selat Bali,0,Indonesia
-29.051442806365,167.98559188843,Ball Bay,South Pacific Ocean,Pacific Ocean,0,Australia
17.955545906148,-66.857299804688,Ballenas,Caribbean Sea,Caribbean Sea,0.29,United States
-28.873990427414,153.59242916107,Ballina North Wall,Coral Sea,Pacific Ocean,0,Australia
51.841584619652,-10.217113494872,Ballinskelligs,North Atlantic Ocean,Atlantic Ocean,3.67,Ireland
-29.53377,31.22306,Ballito,Indian Ocean,Indian Ocean,0,South Africa
-29.539166666667,31.221,Ballito Surfers Point,Indian Ocean,Indian Ocean,0,South Africa
42.000827447744,-70.021147727966,Ballston Beach,Gulf of Maine,Gulf of Maine,0,United States
52.513824695392,-9.6770775318146,Ballybunion,North Atlantic Ocean,Atlantic Ocean,0.39,Ireland
52.387604576874,-9.8365402221681,Ballyheigue Ireland Southwest,North Atlantic Ocean,Atlantic Ocean,1.78,Ireland
55.248989249026,-7.7027893066406,Ballyheirnan Bay,Inner Seas,Inner Seas,0.5,Ireland
-33.8219770915,151.25255584717,Balmoral Point,Tasman Sea,Tasman Sea,3.54,Australia
-38.390479808065,145.12475967407,Balnarring Point,Bass Strait,Bass Strait,2.5,Australia
-26.987712366288,-48.629951477051,Balneario Camboriu,South Atlantic Ocean,Atlantic Ocean,2.77,Brazil
-25.7332396357577,-48.4891764074564,Balneario Costa Azul,South Atlantic Ocean,Atlantic Ocean,0,Brazil
53.7316,7.3756,Baltrum,North Sea,Atlantic Ocean,0,Germany
10.494732339895,103.5597038269,Bamboo Island,Gulf of Thailand,Gulf of Thailand,0,Cambodia
-42.894210024695,147.5013256073,Bambra Reef,Tasman Sea,Tasman Sea,3,Australia
55.612056451916,-1.7166191339493,Bamburgh,North Sea,Atlantic Ocean,0,United Kingdom
30.50073,-9.67912,Banana Beach,North Atlantic Ocean,Atlantic Ocean,1.17,Morocco
-30.664055710273,30.516242980957,Banana Beach,Indian Ocean,Indian Ocean,0,South Africa
-5.1230883978439,103.84603500366,Banana Island,Indian Ocean,Indian Ocean,0,Indonesia
30.50211911325,-9.6848130226135,Banana Point,North Atlantic Ocean,Atlantic Ocean,0.8,Morocco
15.999661898924,-61.602138876918,Bananier,Caribbean Sea,Caribbean Sea,0,France
48.372016555788,-64.587480425835,Banc De Pabos,Gulf of Saint Lawrence,Gulf of Saint Lawrence,0.14,Canada
-38.292260730524,144.40788030624,Bancoora,Bass Strait,Bass Strait,2.64,Australia
21.509296200229,59.383850097656,Bandar Al Saqlah,Arabian Sea,Indian Ocean,0,Oman
43.132841934332,5.7479524612427,Bandol,Mediterranean Sea,Mediterranean Sea,0,France
43.092709966461,-124.43467140198,Bandon Beaches,North Pacific Ocean,Pacific Ocean,0,United States
-33.834918087481,121.92910194397,Bandy Creek Groyne,Great Australian Bight,Great Australian Bight,2.45,Australia
8.6743241504698,98.240872621536,Bang Niang Rivermouth,Andaman Sea,Indian Ocean,0.55,Thailand
-1.852075297525,99.244737625122,Bankvaults,Indian Ocean,Indian Ocean,0,Indonesia
52.346312012931,-9.8353815078735,Banna Strand-Sandy Lane,North Atlantic Ocean,Atlantic Ocean,0.94,Ireland
-35.321191879588,150.48461794853,Bannister Head Suck Rock,Tasman Sea,Tasman Sea,2.28,Australia
-35.325349881214,150.48153877258,Bannisters Point,Tasman Sea,Tasman Sea,2.36,Australia
50.278456,-3.8781,Bantham,English Channel,Atlantic Ocean,0.39,United Kingdom
50.278013824164,-3.8869285583496,Bantham Rivermouth,English Channel,Atlantic Ocean,0,United Kingdom
2.1967272417617,97.294921875,Banyaks,Indian Ocean,Indian Ocean,0,Indonesia
19.606616531692,-155.97711145878,Banyons,North Pacific Ocean,Pacific Ocean,0,United States
42.03144,11.92912,Banzai,Tyrrhenian Sea,Mediterranean Sea,1.23,Italy
-33.417114227621,151.46390318871,Banzai,Tasman Sea,Tasman Sea,0,Australia
42.028368114704,11.839356422424,Banzai s Marinella),Tyrrhenian Sea,Mediterranean Sea,0,Italy
37.317205770306,9.8722457885742,Banzart,Mediterranean Sea,Mediterranean Sea,0,Tunisia
14.471977736996,-17.07052230835,Baobab,North Atlantic Ocean,Atlantic Ocean,0,Senegal
42.105733099195,19.085356518045,Bar,Adriatic Sea,Mediterranean Sea,1.1,Montenegro
-32.942033004895,151.76787257195,Bar Beach,Tasman Sea,Tasman Sea,1.19,Australia
-32.942348139652,151.76977157593,Bar Reef,Tasman Sea,Tasman Sea,1.02,Australia
-4.6870201891746,55.455958843231,Barbarons,Indian Ocean,Indian Ocean,0,Seychelles
36.18665,-5.91963,Barbate,Strait of Gibraltar,Strait of Gibraltar,2.5,Spain
21.296191936972,-158.0733704567,Barbers Point-Coast Guard Jetty,North Pacific Ocean,Pacific Ocean,0,United States
41.378853408792,2.1926736831665,Barceloneta,Balearic Sea,Mediterranean Sea,1.19,Spain
51.4687745,-9.7766891,Barley Cove,North Atlantic Ocean,Atlantic Ocean,0,Ireland
6.2322001195433,-10.682144165039,Barns Beach,North Atlantic Ocean,Atlantic Ocean,0,Liberia
-23.789428846486,35.517082214355,Barra,Mozambique Channel,Indian Ocean,0.5,Mozambique
-9.3599815678694,13.152008056641,Barra Da Kwanza,South Atlantic Ocean,Atlantic Ocean,1.09,Angola
-27.572817695647,-48.424376249313,Barra Da Lagoa,South Atlantic Ocean,Atlantic Ocean,0.93,Brazil
-23.01113,-43.36621,Barra Da Tijuca,South Atlantic Ocean,Atlantic Ocean,0,Brazil
-23.010857349428,-43.361874371767,Barra Da Tijuca-Posto 8,South Atlantic Ocean,Atlantic Ocean,0,Brazil
16.91699213162,-100.01090526581,Barra De Coyuca,North Pacific Ocean,Pacific Ocean,0.42,Mexico
-23.064017641347,-43.569374084473,Barra De Guaratiba,South Atlantic Ocean,Atlantic Ocean,0,Brazil
-26.691345062169,-48.68416428566,Barra De Itajuba,South Atlantic Ocean,Atlantic Ocean,0.64,Brazil
15.83157,-95.94949,Barra De La Cruz,Golfo De Tehuantepec,Golfo De Tehuantepec,2.22,Mexico
19.204672708048,-104.69266891479,Barra De Navidad,North Pacific Ocean,Pacific Ocean,0.99,Mexico
17.538284,-101.451708,Barra De Potosi,North Pacific Ocean,Pacific Ocean,0,Mexico
13.705954645363,-90.039358735085,Barra De Santiago,North Pacific Ocean,Pacific Ocean,0,El Salvador
-26.007831547686,-48.604061454538,Barra Do Sai Mirim,South Atlantic Ocean,Atlantic Ocean,1.47,Brazil
-20.384261530706,-40.310087800026,Barra Sol,South Atlantic Ocean,Atlantic Ocean,0,Brazil
16.688241447678,-99.629817008972,Barra Vieja,North Pacific Ocean,Pacific Ocean,0,Mexico
-34.560603138496,150.87472915649,Barrack Point,Tasman Sea,Tasman Sea,0,Australia
43.311876639639,-8.5486507415771,Barranan,North Atlantic Ocean,Atlantic Ocean,2.55,Spain
37.091283902323,-8.1829690933228,Barranco Da Belharucas,North Atlantic Ocean,Atlantic Ocean,1.22,Portugal
-21.826175861614,-70.144035816193,Barrancon,South Pacific Ocean,Pacific Ocean,0.68,Chile
-12.145209224682,-77.026476860046,Barranquito,South Pacific Ocean,Pacific Ocean,2.25,Peru
-13.009763615716,-38.526971340179,Barravento,South Atlantic Ocean,Atlantic Ocean,0,Brazil
47.638212656571,-3.2092094421387,Barre Detel,Bay of Biscay,Atlantic Ocean,0,France
9.8817286892368,-85.577702522278,Barrigona,North Pacific Ocean,Pacific Ocean,0,Costa Rica
-26.623905071921,-48.679990768433,Barrinha,South Atlantic Ocean,Atlantic Ocean,0.34,Brazil
9.7455,126.1705,Barrio,Philippine Sea,Pacific Ocean,0,Philippines
-20.15110123139,-40.183460712433,Barrote Jacaraipe,South Atlantic Ocean,Atlantic Ocean,0,Brazil
52.916821081189,-9.3667030334475,Barrtra,North Atlantic Ocean,Atlantic Ocean,2.55,Ireland
-31.59415976418,152.84259483217,Bartletts Beach,Tasman Sea,Tasman Sea,2.65,Australia
-35.521678478851,138.7003326416,Bashams Bommie,Great Australian Bight,Great Australian Bight,4.12,Australia
23.396837340277,121.48119449615,Bashien Dong,Philippine Sea,Pacific Ocean,0,Taiwan
51.807586646058,-10.178596973419,Baslicon,North Atlantic Ocean,Atlantic Ocean,2.98,Ireland
41.242618415531,9.4004666805267,Bassa Trinita,Tyrrhenian Sea,Mediterranean Sea,0,Italy
14.869976488771,-61.116598024966,Basse Pointe Le Chaudron,Caribbean Sea,Caribbean Sea,0.01,France
43.343313607147,-8.3635568618774,Bastiagueiro,North Atlantic Ocean,Atlantic Ocean,5.66,Spain
-4.4573197104221,-81.299257278442,Baterias,South Pacific Ocean,Pacific Ocean,0.5,Peru
45.409749083829,-75.756869316101,"Bates Island,Ottawa River",Saint Lawrence River,Saint Lawrence River,93.88,Canada
27.186891,-80.160698,Bathtub Beach,North Atlantic Ocean,Atlantic Ocean,0,United States
34.243630205773,35.658659934998,Batroun,Mediterranean Sea,Mediterranean Sea,1.04,Lebanon
-34.146263123313,18.317127227783,Battery,South Atlantic Ocean,Atlantic Ocean,0,South Africa
13.135042535265,-59.6363478899,Batts Rock,Caribbean Sea,Caribbean Sea,0,Barbados
-7.7482439113728,108.50217819214,Batu Karas,Indian Ocean,Indian Ocean,0.17,Indonesia
16.54244,120.31893,Bauang,South China Sea,Pacific Ocean,1.48,Philippines
49.429314498848,-1.82373046875,Baubigny,English Channel,Atlantic Ocean,0,France
-20.275728806088,-70.133038759232,Baul,South Pacific Ocean,Pacific Ocean,2.2,Chile
0.81253189160424,97.347192764282,Bawa,Indian Ocean,Indian Ocean,0,Indonesia
-35.507076989475,150.40111541748,Bawley Point,Tasman Sea,Tasman Sea,1.12,Australia
54.279207429605,-8.605899810791,Bay Break,North Atlantic Ocean,Atlantic Ocean,0,Ireland
40.076987783227,-74.039504528046,Bay Head,North Atlantic Ocean,Atlantic Ocean,1.04,United States
-33.304116007482,115.64576983452,Bay Left Wall),Geographe Bay,Geographe Bay,1,Australia
41.516839304974,-82.719883918762,"Bay Point,Marblehead",Chesapeake Bay,Chesapeake Bay,565.33,United States
34.00443128757,-118.49297761917,"Bay Street,Santa Monica",North Pacific Ocean,Pacific Ocean,0.31,United States
-34.065316541103,151.14784240723,Bay Waves,Tasman Sea,Tasman Sea,3.16,Australia
51.344495843013,3.2314083809618,Bay of Heist,North Sea,Atlantic Ocean,0.87,Belgium
2.0558903251664,97.318611145018,Bay of Plenty,Indian Ocean,Indian Ocean,0,Indonesia
-6.9378,106.245,Baya,Indian Ocean,Indian Ocean,0.86,Indonesia
19.724897879011,-155.07733225822,Bayfront,North Pacific Ocean,Pacific Ocean,2.83,United States
28.976768527113,-80.855662822723,Beach Club,North Atlantic Ocean,Atlantic Ocean,0.47,United States
-18.23163396773,177.77119159698,Beachouse,South Pacific Ocean,Pacific Ocean,0,Fiji
-37.480371100076,140.01670181751,Beachport,Great Australian Bight,Great Australian Bight,0,Australia
29.916703445445,-81.288356781006,Beacon Point,North Atlantic Ocean,Atlantic Ocean,0.74,United States
0.2137,73.14151,Beacons,Laccadive Sea,Indian Ocean,0,Maldives
33.065102068104,-117.3047375679,Beacons,North Pacific Ocean,Pacific Ocean,0.18,United States
-36.435612246612,150.07650375366,Bears Beach,Tasman Sea,Tasman Sea,0.67,Australia
-4.6105613797751,55.428514480591,Beau Vallon Beach,Indian Ocean,Indian Ocean,0,Seychelles
34.026521467847,-77.894096374512,Beauregard,North Atlantic Ocean,Atlantic Ocean,0,United States
49.545757326491,-1.8760335445404,Becquerel Point,English Channel,Atlantic Ocean,0,France
2.01688,73.53463,Bedhuge,Laccadive Sea,Indian Ocean,0,Maldives
33.736617340262,-118.39845657349,Bee Hives,North Pacific Ocean,Pacific Ocean,0,United States
50.685474088802,-3.0953979492188,Beer Point,English Channel,Atlantic Ocean,0,United Kingdom
-41.283907805944,148.35208710283,Beerbarral Beach,Tasman Sea,Tasman Sea,0,Australia
48.743653591918,-3.5526609420776,Beg Leguer,English Channel,Atlantic Ocean,1.95,France
47.774521597441,-3.6388778686523,Beg an Tour,Bay of Biscay,Atlantic Ocean,0,France
9.48238,-84.28503,Bejuco,North Pacific Ocean,Pacific Ocean,0.49,Costa Rica
-34.364215503897,150.92262268066,Belambi a Frame,Tasman Sea,Tasman Sea,1.15,Australia
39.416518715712,-9.252644777298,Belgas,North Atlantic Ocean,Atlantic Ocean,0.83,Portugal
16.741427547004,-62.233064174652,Belham Valley Rivermouth,Caribbean Sea,Caribbean Sea,0,Montserrat
43.4173,-1.713,Belharra,Bay of Biscay,Atlantic Ocean,0.58,France
37.02561,-8.96402,Beliche,North Atlantic Ocean,Atlantic Ocean,0.24,Portugal
27.924350620898,-82.842535972595,Bellair Beach,Gulf of Mexico,Gulf of Mexico,0,United States
-34.363197024191,150.92342734337,Bellambi Point,Tasman Sea,Tasman Sea,1.11,Australia
47.326199564091,-3.2388210296631,Belle Ile en Mer-Donnant,Bay of Biscay,Atlantic Ocean,0,France
46.509971429496,6.6149282455444,Bellerive,Ligurian Sea,Mediterranean Sea,284.24,Switzerland
48.719409116804,-122.51650571823,Bellingham Bay,Salish Sea,Salish Sea,0.98,United States
-34.155994235996,18.592987060547,Bellows,South Atlantic Ocean,Atlantic Ocean,0,South Africa
21.36253186469,-157.70934104919,Bellows,North Pacific Ocean,Pacific Ocean,1.54,United States
-38.36868,144.28282,Bells Beach,Bass Strait,Bass Strait,0.25,Australia
40.18081,-74.01191,Belmar,North Atlantic Ocean,Atlantic Ocean,0.97,United States
40.172089796197,-74.015439748764,Belmar 16 Th Street,North Atlantic Ocean,Atlantic Ocean,0.99,United States
-8.8819764236685,116.03626728058,Belongas,Bali Sea,Bali Sea,0,Indonesia
-8.86395,116.03581,Belongas Bay,Bali Sea,Bali Sea,1.16,Indonesia
-28.630298403043,153.59650611877,Belongil,Coral Sea,Pacific Ocean,0.53,Australia
41.455625306329,12.65524148941,Belvedere,Tyrrhenian Sea,Mediterranean Sea,0,Italy
33.376242122927,-118.47914814949,Ben Weston(Catalina Island),North Pacific Ocean,Pacific Ocean,0,United States
15.256943831489,73.918762207031,Benaulim Beach,Arabian Sea,Indian Ocean,2.12,India
-35.251209112875,150.53589105606,Bendalong,Tasman Sea,Tasman Sea,1.05,Australia
-28.306798859194,114.34844970703,Benders,Indian Ocean,Indian Ocean,0,Australia
-8.8907744683448,116.73576593399,Benete,Bali Sea,Bali Sea,0,Indonesia
-1.814500699337,99.265336990357,Beng Beng,Indian Ocean,Indian Ocean,0,Indonesia
28.574584320957,-16.188687086105,Benijo,North Atlantic Ocean,Atlantic Ocean,0,Spain
-31.872715180062,115.75182706118,Bennion Beach-Cleggies,Geographe Bay,Geographe Bay,1.59,Australia
6.1387498757936,80.098208069703,Bennys,Laccadive Sea,Indian Ocean,0,Sri Lanka
4.9937858037205,114.91991579533,Berakas Coastal Park,South China Sea,Pacific Ocean,0,Brunei
-8.6669444444444,115.13861111111,Berawa,Selat Bali,Selat Bali,1.27,Indonesia
50.408599581688,1.5578699111938,Berck Sur Mer,English Channel,Atlantic Ocean,0,France
52.660884261488,4.627947807312,Bergen Aan Zee,North Sea,Atlantic Ocean,0,Netherlands
-10.564012761956,-77.907829284668,Bermejo,South Pacific Ocean,Pacific Ocean,0.14,Peru
-20.006076472656,57.695174217224,Bernache,Indian Ocean,Indian Ocean,0,Mauritius
49.96917909552,1.1952137947083,Berneval,English Channel,Atlantic Ocean,1.57,France
-35.211615071406,150.55097579956,Berrara Point,Tasman Sea,Tasman Sea,1.52,Australia
43.46369,-3.46636,Berria,Bay of Biscay,Atlantic Ocean,1.33,Spain
-34.899025460931,137.01101303101,Berry Bay,Gulf St Vincent,Gulf St Vincent,0,Australia
-38.518229007242,145.20105242729,Berrys Beach,Bass Strait,Bass Strait,0,Australia
32.75773948201,-79.836208820343,Berts Bar,North Atlantic Ocean,Atlantic Ocean,0,United States
32.385180257193,34.861797094345,Bet Yanay,Mediterranean Sea,Mediterranean Sea,0.42,Israel
15.292961187179,73.902282714844,Betalbatim Beach-Taj,Arabian Sea,Indian Ocean,1.46,India
38.537491460725,-75.053325891495,Bethany Hollywood St,North Atlantic Ocean,Atlantic Ocean,0.07,United States
-36.900626393129,174.44538116455,Bethells,Tasman Sea,Tasman Sea,0,New Zealand
28.95080895342,-80.838697850704,Bethune,North Atlantic Ocean,Atlantic Ocean,0.53,United States
-34.3591,18.90517,Bettys Bay,South Atlantic Ocean,Atlantic Ocean,0.05,South Africa
50.836052288158,0.46620547771453,Bexhill,English Channel,Atlantic Ocean,0.19,United Kingdom
4.98736488964126,-2.59645644575357,Beyin Beach Resort,Gulf of Guinea,Atlantic Ocean,0.7,Ghana
43.48473,-1.55892,Biarritz,Bay of Biscay,Atlantic Ocean,1.12,France
43.479051412991,-1.5671825408936,Biarritz Cote Des Basques,Bay of Biscay,Atlantic Ocean,1.02,France
43.485466013306,-1.5592002868652,Biarritz Grande Plage,Bay of Biscay,Atlantic Ocean,1.05,France
43.46484968113,-1.5771818161011,Biarritz Milady,Bay of Biscay,Atlantic Ocean,1.43,France
43.469116780217,-1.5745532512665,Biarritz Plage De Marbella,Bay of Biscay,Atlantic Ocean,1.28,France
-3.8351059144957,-32.403348684311,Biboca,South Atlantic Ocean,Atlantic Ocean,0,Brazil
38.692485884645,-9.3718045949934,Bica,North Atlantic Ocean,Atlantic Ocean,0,Portugal
38.422848079455,-9.2189240455627,Bicas,North Atlantic Ocean,Atlantic Ocean,0,Portugal
29.339161748947,-81.06213927269,Bicentenial Park,North Atlantic Ocean,Atlantic Ocean,1.5,United States
38.65643,-9.09226,Bico,North Atlantic Ocean,Atlantic Ocean,4.41,Portugal
43.456065361127,-1.5820580720901,Bidart Ii,Bay of Biscay,Atlantic Ocean,1.76,France
43.455738260737,-1.5837854146957,Bidart Pavillon Royal,Bay of Biscay,Atlantic Ocean,1.67,France
43.437090613776,-1.5967512130737,Bidart Plage Centrale,Bay of Biscay,Atlantic Ocean,2.22,France
-33.792273132273,18.451066017151,Big Bay,South Atlantic Ocean,Atlantic Ocean,0,South Africa
20.632352501064,-156.44841313362,Big Beach,North Pacific Ocean,Pacific Ocean,0,United States
-33.27828775157,151.57531142235,Big Bommie,Tasman Sea,Tasman Sea,0,Australia
20.900182057747,-156.47678017616,Big Eds,North Pacific Ocean,Pacific Ocean,2.3,United States
58.300719541601,11.284589767457,Big Farmers Break,Kattegat,Kattegat,0,Sweden
41.160046141687,-124.13572311401,Big Lagoon,North Pacific Ocean,Pacific Ocean,0.27,United States
-38.485105682697,145.01008987427,Big Left,Bass Strait,Bass Strait,0,Australia
-38.711500435879,177.94710159302,Big River,South Pacific Ocean,Pacific Ocean,2.81,New Zealand
39.301594343773,-123.79780769348,Big River,North Pacific Ocean,Pacific Ocean,0,United States
12.78922,80.25459,Big Rock,Bay of Bengal,Indian Ocean,0,India
-31.753181163057,115.72488963604,Big Rock,Geographe Bay,Geographe Bay,1.37,Australia
32.825058586961,-117.28152036667,Big Rock,North Pacific Ocean,Pacific Ocean,0,United States
33.445837696604,-111.9130039215,Big Surf Az,Golfo De California,Pacific Ocean,271.37,United States
-34.908792191314,-54.826819896698,Bikini Beach(Left Reef Break),South Atlantic Ocean,Atlantic Ocean,0,Uruguay
-33.643887945393,151.33076369762,Bilgola Bank,Tasman Sea,Tasman Sea,0,Australia
-33.647671564231,151.32924556732,Bilgola Beach-Bowles,Tasman Sea,Tasman Sea,0,Australia
38.525070076784,-123.26887607574,Bills Bowls,North Pacific Ocean,Pacific Ocean,0,United States
-17.830372494791,146.10018253326,Bingil Bay,Coral Sea,Pacific Ocean,0,Australia
-8.80503,115.1138,Bingin,Selat Bali,Selat Bali,0.25,Indonesia
23.224014261672,-16.118810176849,Bings Point,North Atlantic Ocean,Atlantic Ocean,0,Morocco
1.1919306203815,104.42813873291,Bintan Lagoon Resort,Strait of Singapore,Strait of Singapore,0.43,Indonesia
-38.027248911884,-57.528630495071,Biologia,South Atlantic Ocean,Atlantic Ocean,0,Argentina
33.857301740642,-78.529071807861,Bird Island,North Atlantic Ocean,Atlantic Ocean,0,United States
15.258206613452,145.81357240677,Bird Island(Saipan),Philippine Sea,Pacific Ocean,0,United States
-38.356094722552,144.29698705673,Bird Rock,Bass Strait,Bass Strait,0.76,Australia
32.729467235364,-117.25659191608,Bird Shit,North Pacific Ocean,Pacific Ocean,0,United States
-1.6895360440578,99.297057868073,Birdbaths,Indian Ocean,Indian Ocean,0,Indonesia
33.420552949163,-117.68623352051,Birdhits,North Pacific Ocean,Pacific Ocean,0,United States
-33.205501574659,151.60762667656,Birdie Beach,Tasman Sea,Tasman Sea,0,Australia
32.814275085236,-117.27499723434,Birdrock,North Pacific Ocean,Pacific Ocean,0,United States
50.742538721332,0.2003288269043,Birling Gap,English Channel,Atlantic Ocean,0,United Kingdom
44.447292346198,-1.2569046020508,Biscarrosse,Bay of Biscay,Atlantic Ocean,0.77,France
41.388400525983,19.395503997803,Bishtpala Out,Adriatic Sea,Mediterranean Sea,0,Albania
49.609263891307,-1.8432784080505,Biville,English Channel,Atlantic Ocean,2.07,France
-33.808356628035,18.466612100601,Blaauwberg,South Atlantic Ocean,Atlantic Ocean,0.84,South Africa
9.671153534953,-82.787475585938,Black Beach,Caribbean Sea,Caribbean Sea,0.81,Costa Rica
-28.859041798855,153.59961211681,Black Head,Coral Sea,Pacific Ocean,0.12,Australia
-32.07003808561,152.54621744156,Black Head Point,Tasman Sea,Tasman Sea,1.08,Australia
4.8003571422258,-1.9381351856442,Black Mamba,Gulf of Guinea,Atlantic Ocean,0.43,Ghana
-34.417973645259,115.55480003357,Black Point,Indian Ocean,Indian Ocean,0.37,Australia
-35.17635,150.68922,Black Rock,Tasman Sea,Tasman Sea,0.17,Australia
-30.268593313835,30.766546726227,Black Rock,Indian Ocean,Indian Ocean,0,South Africa
-20.318389399603,57.367515563965,Black Rocks,Indian Ocean,Indian Ocean,0.12,Mauritius
-34.309873406256,18.461751937866,Black Rocks,South Atlantic Ocean,Atlantic Ocean,0,South Africa
-21.055752010004,55.221297740936,Black Rocks Jetty,Indian Ocean,Indian Ocean,0,France
-21.053484164799,55.222510099411,Black Rocks Right,Indian Ocean,Indian Ocean,0,France
-2.6170694444444,140.73745,Black Sands,South Pacific Ocean,Pacific Ocean,1.56,Indonesia
54.476379817376,-8.3219568733328,Black Spot,North Atlantic Ocean,Atlantic Ocean,0.18,Ireland
-33.619979981751,134.8305273056,Blackfellows,Great Australian Bight,Great Australian Bight,0,Australia
-36.082800472628,150.13424634933,Blackfellows Point,Tasman Sea,Tasman Sea,0.19,Australia
-45.930498074291,170.42455673217,Blackhead,South Pacific Ocean,Pacific Ocean,1.05,New Zealand
33.609043821629,-117.9320526123,Blackies,North Pacific Ocean,Pacific Ocean,0,United States
-43.00168441719,147.32580184936,Blackmans Bay,Tasman Sea,Tasman Sea,0.26,Australia
-38.37490424488,141.63977622986,Blacknose,Great Australian Bight,Great Australian Bight,0,Australia
-35.168476080532,150.68452835083,Blackrock,Tasman Sea,Tasman Sea,1.05,Australia
-28.37693980518,153.57275247574,Blackrocks,Coral Sea,Pacific Ocean,0,Australia
-39.076775952213,177.79998779297,Blacks,South Pacific Ocean,Pacific Ocean,3.94,New Zealand
-35.587457007818,150.35038948059,Blacks,Tasman Sea,Tasman Sea,1.56,Australia
36.958834019965,-121.9931101799,Blacks,Monterey Bay,Monterey Bay,0,United States
32.88078,-117.25176,Blacks Beach,North Pacific Ocean,Pacific Ocean,0.45,United States
-33.078579015314,151.65889978409,Blacksmiths Beach,Tasman Sea,Tasman Sea,1.92,Australia
18.089728080676,-63.009338378906,Blakes Break,Caribbean Sea,Caribbean Sea,0,France
-42.44216,171.19296,Blaketown Wedge,Tasman Sea,Tasman Sea,0,New Zealand
51.31527111771,3.1105041503908,Blankenberge Oosterstaketsel,North Sea,Atlantic Ocean,0,Belgium
51.321373075427,3.1365966796875,Blankenberge Pier,North Sea,Atlantic Ocean,0.13,Belgium
-35.083753650035,150.6914806366,Blenheim Beach,Tasman Sea,Tasman Sea,0,Australia
-34.101926211707,18.799452781677,Blinkklip Reef,South Atlantic Ocean,Atlantic Ocean,0.22,South Africa
41.145569731009,-71.586227416992,Block Island,North Atlantic Ocean,Atlantic Ocean,0,United States
55.138007708283,-8.2989985288441,Bloody Foreland,North Atlantic Ocean,Atlantic Ocean,0,Ireland
-37.630139316268,176.18420362473,Blowhole,Bay of Plenty,Bay of Plenty,0,New Zealand
29.874959741402,-81.267285346985,Blowhole,North Atlantic Ocean,Atlantic Ocean,0,United States
-35.56157450052,150.38732886314,Blowies,Tasman Sea,Tasman Sea,0,Australia
-33.355767498334,151.50266647339,Blue Bay,Tasman Sea,Tasman Sea,0,Australia
-33.355113306182,151.50199055672,Blue Bay Shorey,Tasman Sea,Tasman Sea,0,Australia
0.23172,73.28359,Blue Bowls,Laccadive Sea,Indian Ocean,0,Maldives
13.126388888889,-61.2025,Blue Lagoon,Caribbean Sea,Caribbean Sea,0,St. Vincent & Grenadines
-33.381389142488,151.48882627487,Blue Lagoon Point,Tasman Sea,Tasman Sea,0,Australia
-38.566987846675,143.96655499935,Blue Moons,Bass Strait,Bass Strait,0.46,Australia
-45.987659136696,170.26851654053,Blue Tops,South Pacific Ocean,Pacific Ocean,4.82,New Zealand
-32.351742146013,152.53714084625,Blueys Beach,Tasman Sea,Tasman Sea,0,Australia
-32.357286568923,152.53526732326,Blueys Beach Wedge,Tasman Sea,Tasman Sea,0,Australia
9.4238515635731,-82.256162166595,Bluff,Caribbean Sea,Caribbean Sea,0,Panama
43.704211961169,-79.228978157043,Bluffers,Saint Lawrence River,Saint Lawrence River,388.19,Canada
55.110291746449,-1.4973163604736,Blyth Beach,North Sea,Atlantic Ocean,2.4,United Kingdom
59.446558596711,9.0734195709229,Bo Sommerland-Flow Rider,Skagerrak,Skagerrak,46.31,Norway
-10.940330653012,122.8400160674,Boa,Indian Ocean,Indian Ocean,0,Indonesia
8.7167886302587,76.70654296875,Boar Rice,Laccadive Sea,Indian Ocean,0,India
34.107051398876,35.650176778437,Board n Surf,Mediterranean Sea,Mediterranean Sea,2.35,Lebanon
28.092123475209,-80.565233230591,Boardwalk,North Atlantic Ocean,Atlantic Ocean,0.53,United States
13.482946579499,144.75164830685,Boat Basin Lefts,Philippine Sea,Pacific Ocean,1.52,United States
13.482659667909,144.75288748741,Boat Basin Rights,Philippine Sea,Pacific Ocean,1.63,United States
34.555531417124,-120.60662269592,Boat House,North Pacific Ocean,Pacific Ocean,0,United States
27.582299045077,-97.218232154846,Bob Hall Pier,Gulf of Mexico,Gulf of Mexico,0,United States
44.495893103416,-1.2499523162842,Bobbys,Bay of Biscay,Atlantic Ocean,0.6,France
6.8527194054141,126.34706497192,Bobon,Philippine Sea,Pacific Ocean,0,Philippines
22.225230108389,-159.57778930664,Bobos Haena,North Pacific Ocean,Pacific Ocean,0,United States
9.96086,-84.73784,Boca Barranca,North Pacific Ocean,Pacific Ocean,4.12,Costa Rica
-14.265880402688,-38.986701965332,Boca Da Barra,South Atlantic Ocean,Atlantic Ocean,0.02,Brazil
9.45784,-84.2164,Boca Damas,North Pacific Ocean,Pacific Ocean,0.01,Costa Rica
19.163329889305,-104.4140625,Boca De Apisa,North Pacific Ocean,Pacific Ocean,7.28,Mexico
29.120824,-13.660126,Boca Del Abajo,North Atlantic Ocean,Atlantic Ocean,0,Spain
37.065425376842,-8.8101124763489,Boca Do Rio,North Atlantic Ocean,Atlantic Ocean,0,Portugal
26.335234819389,-80.070472955704,Boca Inlet,Straits of Florida,Straits of Florida,0,United States
28.158778168103,-15.665412247181,Bocabarranco,North Atlantic Ocean,Atlantic Ocean,0,Spain
43.862272995563,10.233335494995,Bocchetta Viareggio),Tyrrhenian Sea,Mediterranean Sea,0,Italy
-21.516666666667,13.85,Bococks Bay,South Atlantic Ocean,Atlantic Ocean,0,Namibia
5.33081993756671,73.4649257361889,Bodu Kanmathi,Laccadive Sea,Indian Ocean,0,Maldives
-36.8271,174.4252,Bogan River,Tasman Sea,Tasman Sea,0,New Zealand
41.39279527063,2.2073721885681,Bogatell,Balearic Sea,Mediterranean Sea,1.26,Spain
44.377978,9.06993,Bogliasco,Ligurian Sea,Mediterranean Sea,1.49,Italy
56.98195829441,8.404959440231,Bogsted,Skagerrak,Skagerrak,0,Denmark
35.716543680981,-75.492140650749,Boiler,North Atlantic Ocean,Atlantic Ocean,0,United States
44.830765211447,-124.06259536743,Boiler Bay,North Pacific Ocean,Pacific Ocean,0,United States
51.53760965235,-4.2118205130108,Boiler Reef,Bristol Channel,Bristol Channel,0,United Kingdom
30.625098,-9.875827,Boilers,North Atlantic Ocean,Atlantic Ocean,0,Morocco
-26.379327129671,153.10022234917,Boiling Pot,Coral Sea,Pacific Ocean,0,Australia
-3.8454574037005,-32.43169426918,Boldro,South Atlantic Ocean,Atlantic Ocean,0,Brazil
38.701570835144,-9.3942761421204,Bolina,North Atlantic Ocean,Atlantic Ocean,0,Portugal
37.903802685374004,-122.68372535706,Bolinas,North Pacific Ocean,Pacific Ocean,0.01,United States
29.519919572792,-94.46551322937,Bolivar,Gulf of Mexico,Gulf of Mexico,0,United States
33.696637053472,-118.04946899414,Bolsa Chica,North Pacific Ocean,Pacific Ocean,0,United States
-27.140118080163,-48.506784439087,Bombas,South Atlantic Ocean,Atlantic Ocean,0,Brazil
-41.344189170409,174.79623436827,Bombers,Cook Strait,Cook Strait,0,New Zealand
-32.951770150005,151.75736367702,Bombie,Tasman Sea,Tasman Sea,1.46,Australia
-6.6208,105.1221,Bombies,Indian Ocean,Indian Ocean,0,Indonesia
-27.148366835382,-48.489532470703,Bombinhas,South Atlantic Ocean,Atlantic Ocean,0,Brazil
-34.657427754893,150.85520267487,Bombo,Tasman Sea,Tasman Sea,0,Australia
21.28275640146,-157.84873008728,Bomboras,North Pacific Ocean,Pacific Ocean,0,United States
-33.8912,151.27663,Bondi,Tasman Sea,Tasman Sea,0.63,Australia
-33.892590076675,151.27881467342,Bondi Beach,Tasman Sea,Tasman Sea,0.42,Australia
50.608667040992,-3.3699703216553,Bone Yard Exmouth,English Channel,Atlantic Ocean,0,United Kingdom
35.608870798951,-121.14547848701,Boners,North Pacific Ocean,Pacific Ocean,0,United States
-23.917382667104,-45.347785949707,Bonete,South Atlantic Ocean,Atlantic Ocean,0,Brazil
-34.64825346802,150.86048662663,Boneyard,Tasman Sea,Tasman Sea,0,Australia
20.867223097275,-156.67796730995,Boneyard,North Pacific Ocean,Pacific Ocean,0,United States
33.037219185737,-117.29773163795,Boneyards,North Pacific Ocean,Pacific Ocean,0,United States
-34.03454151962,24.934372901917,Boneyards,Indian Ocean,Indian Ocean,0,South Africa
51.131753979786,-4.2417526245117,Boneyards,Bristol Channel,Bristol Channel,0,United Kingdom
56.535577216785,10.714845657349,Bonnerup Ost Mole,Kattegat,Kattegat,0,Denmark
41.482026334032,-71.418170928955,Bonnet Shores Point,North Atlantic Ocean,Atlantic Ocean,0,United States
0.17409870268999,102.55531311035,Bono,South China Sea,Pacific Ocean,4.72,Indonesia
-32.975440038255,27.967479228973,Bonza Bay,Indian Ocean,Indian Ocean,0,South Africa
50.536126142797,-5.0241851806641,Boobies,Bristol Channel,Bristol Channel,0,United Kingdom
-34.010763682125,114.99750137329,Boodjidup,Indian Ocean,Indian Ocean,2.2,Australia
-38.510568755997,145.28284907341,Boofs,Bass Strait,Bass Strait,0,Australia
-35.536486845646,138.66711616516,Booma,Great Australian Bight,Great Australian Bight,4.11,Australia
-32.339650636118,152.54138946533,Boomerang Beach,Tasman Sea,Tasman Sea,0,Australia
-32.312089734677,152.52336502075,Booti Booti National Park,Tasman Sea,Tasman Sea,0,Australia
28.14667468655,-15.560878515244,Boquines,North Atlantic Ocean,Atlantic Ocean,0,Spain
-41.165732428402,146.36508822441,Bora,Bass Strait,Bass Strait,0.69,Australia
-34.165795245182,115.02822875977,Boranup Beach,Indian Ocean,Indian Ocean,2.04,Australia
37.1976,-8.9012,Bordeira,North Atlantic Ocean,Atlantic Ocean,1,Portugal
58.79941,5.5487,Bore,North Sea,Atlantic Ocean,1.59,Norway
-8.4996222969949,-35.003128051758,Borete,South Atlantic Ocean,Atlantic Ocean,0.29,Brazil
53.60172,6.6716,Borkum,North Sea,Atlantic Ocean,0,Germany
53.611145683036,6.6438102722168,Borkum Nordstrand,North Sea,Atlantic Ocean,0,Germany
53.58563973762,6.6553544998169,Borkum Weststrand,North Sea,Atlantic Ocean,0,Germany
55.673531072556,8.1424999237061,Borsmose,North Sea,Atlantic Ocean,0,Denmark
50.718797404754,-1.8436002731323,Boscombe Pier,English Channel,Atlantic Ocean,0.1,United Kingdom
-31.536421541113,18.07347536087,Boskraal Strand,South Atlantic Ocean,Atlantic Ocean,0.64,South Africa
-21.0283503227,55.224580764771,Boucan Left,Indian Ocean,Indian Ocean,0,France
-21.026943303024,55.225121900439,Boucan Right,Indian Ocean,Indian Ocean,0,France
36.992960032356,21.648369133472,Bouka,Ionian Sea,Mediterranean Sea,0.2,Greece
-28.811005610382,153.60658049583,Boulder Beach,Coral Sea,Pacific Ocean,0.08,Australia
-32.698766399294,152.19025611877,Boulders,Tasman Sea,Tasman Sea,0,Australia
11.6154,125.43833,Boulevard,Philippine Sea,Pacific Ocean,6.11,Philippines
50.71624,-1.87366,Bournemouth,English Channel,Atlantic Ocean,0.04,United Kingdom
50.715074848905,-1.8756580352783,Bournemouth Pier,English Channel,Atlantic Ocean,0,United Kingdom
33.47727218776,-7.84423828125,Bouznika,North Atlantic Ocean,Atlantic Ocean,6.36,Morocco
53.307082877446,-135.65986633301,Bowie Seamount,North Pacific Ocean,Pacific Ocean,0,NA
-32.720396197612,152.18544960022,Box Beach,Tasman Sea,Tasman Sea,0,Australia
-33.544828460754,151.34387969971,Box Head-Umina,Tasman Sea,Tasman Sea,0.62,Australia
26.545287540158,-80.042374134064,Boynton Tortuga Beach,Straits of Florida,Straits of Florida,0,United States
19.75081,-70.41026,Bozo,North Atlantic Ocean,Atlantic Ocean,0.15,Dominican Republic
40.721176823505,-72.897441387177,Bp,North Atlantic Ocean,Atlantic Ocean,0,United States
42.58705569572,-70.648055076599,Brace Cove,Massachusetts Bay,Massachusetts Bay,0,United States
50.760241799345,-0.86068868637085,Bracklesham Bay,English Channel,Atlantic Ocean,0,United Kingdom
27.459902999666,-82.697058320045,Bradenton Twin Piers,Gulf of Mexico,Gulf of Mexico,0,United States
40.197920921737,-74.006052017212,Bradley Beach,North Atlantic Ocean,Atlantic Ocean,1.05,United States
54.912633055151,8.2990765571594,"Brandenburg Sylt,Westerland)",North Sea,Atlantic Ocean,0,Germany
13.077200057971,-59.608367085457,Brandon,Caribbean Sea,Caribbean Sea,0,Barbados
52.29855,-10.03659,Brandon Bay,North Atlantic Ocean,Atlantic Ocean,0,Ireland
55.51925352594,14.346599578857,Brantevik,Baltic Sea,Atlantic Ocean,0,Sweden
10.4053030712,-85.802986621857,Brasilito,North Pacific Ocean,Pacific Ocean,1.93,Costa Rica
-23.370962677392,-44.799858927727,Brava Do Camburi,South Atlantic Ocean,Atlantic Ocean,0,Brazil
-34.053014984248,151.15711212158,Braymains,Tasman Sea,Tasman Sea,3.43,Australia
43.375202215229,-3.2123637199402,Brazomar,Bay of Biscay,Atlantic Ocean,3.45,Spain
-39.051376820789,174.04229879377,Break Water,Tasman Sea,Tasman Sea,0.58,New Zealand
-41.332861114841,174.83150660992,Breaker Bay,Cook Strait,Cook Strait,0,New Zealand
22.461226970691,114.42040801048,Breaker Reef,South China Sea,Pacific Ocean,0,China
50.215596661922,-5.4754567891359,Breakwater,Bristol Channel,Bristol Channel,0.18,United Kingdom
47.506772780684,9.7135663032532,Bregenz Hechtweg,Adriatic Sea,Mediterranean Sea,301.87,Austria
47.509621882502,9.7525119781494,Bregenz Seebad,Adriatic Sea,Mediterranean Sea,300.17,Austria
65.557480301845,-24.360870720993,Breidavik,Denmark Strait,Denmark Strait,2.15,Iceland
49.65707191377,-1.5236663818359,Bretteville,English Channel,Atlantic Ocean,2.37,France
18.442484377904,-64.65145111084,Brewers Bay,Caribbean Sea,Caribbean Sea,0,British Virgin Islands
-27.05759706492,153.19988250732,Bribie Island,Coral Sea,Pacific Ocean,0,Australia
40.01473962751,-74.054862856865,Brick Beach 2,North Atlantic Ocean,Atlantic Ocean,1.59,United States
18.426499,-67.155573,Bridges,North Atlantic Ocean,Atlantic Ocean,1.99,United States
-45.948434379236,170.33763170242,Brighton,South Pacific Ocean,Pacific Ocean,3.55,New Zealand
-35.017054560859,138.51372599602,Brighton,Gulf St Vincent,Gulf St Vincent,0.3,Australia
-31.896906733548,115.75439929962,Brighton Beach,Geographe Bay,Geographe Bay,1.58,Australia
-45.951925464389,170.33091545105,Brighton Beach,South Pacific Ocean,Pacific Ocean,3.6,New Zealand
46.842874854878,-91.992870569229,Brighton Beach,James Bay,James Bay,942.92,United States
50.820956962776,-0.15320777893066,Brighton West Pier),English Channel,Atlantic Ocean,1.41,United Kingdom
63.406145512743,-20.272521972656,Brimurd,North Atlantic Ocean,Atlantic Ocean,0,Iceland
-28.028860463649,153.4361743927,Broadbeach,Coral Sea,Pacific Ocean,1.47,Australia
51.78122320285,-5.1052093505859,Broadhaven North),Irish Sea,Irish Sea,4.31,United Kingdom
51.357351406111,1.4428997039796,Broadstairs,North Sea,Atlantic Ocean,0,United Kingdom
38.92975,-74.93145,Broadway Beach,North Atlantic Ocean,Atlantic Ocean,0,United States
-28.70435,153.61503,Broken Head,Coral Sea,Pacific Ocean,0,Australia
-33.90381459207,151.26992583275,Bronte Reef,Tasman Sea,Tasman Sea,1.15,Australia
-29.718051002878,31.094001531601,Bronze Beach,Indian Ocean,Indian Ocean,1.45,South Africa
42.04446,-124.26885,Brookings,North Pacific Ocean,Pacific Ocean,0.32,United States
42.043874915794,-124.26953315735,Brookings Sporthaven Beach,North Pacific Ocean,Pacific Ocean,0.23,United States
33.532861016261,-117.77734279633,Brooks Street,North Pacific Ocean,Pacific Ocean,0.23,United States
-36.10577443854,150.13737916947,Brou Beach,Tasman Sea,Tasman Sea,0,Australia
-35.846900023023,150.17907142639,Broulee North,Tasman Sea,Tasman Sea,1.1,Australia
-35.858796121312,150.17992973328,Broulee South Beach,Tasman Sea,Tasman Sea,0.75,Australia
-36.717257697338,174.75002110004,Browns Bay Bar,South Pacific Ocean,Pacific Ocean,1.03,New Zealand
-38.049713236565,140.78533172607,Browns Beach,Great Australian Bight,Great Australian Bight,0,Australia
-34.175311078344,24.841461181641,Bruces Beauties,Indian Ocean,Indian Ocean,0,South Africa
-28.536500723348,153.55728149414,Brunswick Heads North,Coral Sea,Pacific Ocean,1.21,Australia
58.52907,5.77121,Brusand,North Sea,Atlantic Ocean,2.54,Norway
40.163313254008,-8.8803005218506,Buarcos,North Atlantic Ocean,Atlantic Ocean,0,Portugal
28.178072799565,-80.589770078659,Buccaneer,North Atlantic Ocean,Atlantic Ocean,1.68,United States
20.74912,-105.33198,Bucerias,North Pacific Ocean,Pacific Ocean,0,Mexico
-36.077359427513,-72.798886299136,Buchupureo,South Pacific Ocean,Pacific Ocean,0.21,Chile
46.394542303287,-1.5116500854492,Bud Bud,Bay of Biscay,Atlantic Ocean,0,France
50.831055,-4.55067,Bude,Bristol Channel,Bristol Channel,0.54,United Kingdom
-34.086058040722,22.974944114685,Buffalo Bay Beachbreak,Indian Ocean,Indian Ocean,0,South Africa
-34.084449734207,22.975641489029,Buffalo Bay(Murpheys),Indian Ocean,Indian Ocean,0,South Africa
-34.088945807238,22.977647781372,Buffalo Bay(Point),Indian Ocean,Indian Ocean,0,South Africa
-34.09,22.97748,Buffels Bay,Indian Ocean,Indian Ocean,0,South Africa
39.40449925594,8.4013223648071,Buggerru,Mediterranean Sea,Mediterranean Sea,0,Italy
-33.517926774202,151.40344619751,Bugs,Tasman Sea,Tasman Sea,1.28,Australia
-34.340211517165,150.92524051666,Bulli,Tasman Sea,Tasman Sea,1.69,Australia
-28.634714891668,153.6361438036,Bullies,Coral Sea,Pacific Ocean,0,Australia
-29.058664366264,167.94589519501,Bumboras,South Pacific Ocean,Pacific Ocean,0,Australia
-33.322195719312,115.63027203083,Bunbury Ammos,Geographe Bay,Geographe Bay,0.33,Australia
-33.327050108656,115.62897920609,Bunbury Bay,Geographe Bay,Geographe Bay,0.4,Australia
-33.313158573544,115.63455283642,Bunbury Bp Reef,Geographe Bay,Geographe Bay,0.36,Australia
-33.330546177227,115.62765955925,Bunbury Clam,Geographe Bay,Geographe Bay,0.42,Australia
-33.302161219473,115.66685199736,Bunbury Cut,Geographe Bay,Geographe Bay,2.77,Australia
-33.398127168068,115.59960365295,Bunbury Dalyellup Beach,Geographe Bay,Geographe Bay,0.8,Australia
-33.308563435296,115.63646793365,Bunbury Fragles,Geographe Bay,Geographe Bay,0.35,Australia
-33.323728713582,115.62955319881,Bunbury Sidies,Geographe Bay,Geographe Bay,0.33,Australia
-33.308621716614,115.63659667969,Bunbury Surf Club(Backbeach),Geographe Bay,Geographe Bay,0.37,Australia
-33.308783110831,115.63581883907,Bunbury the Groyne,Geographe Bay,Geographe Bay,0.3,Australia
-33.301291414393,115.64637601376,Bunbury the Wall,Geographe Bay,Geographe Bay,0.94,Australia
-24.788945601578,152.43833899498,Bundaberg,Coral Sea,Pacific Ocean,0,Australia
54.482907,-8.27754,Bundoran,North Atlantic Ocean,Atlantic Ocean,0.49,Ireland
-36.543988368035,150.05853831768,Bunga Head,Tasman Sea,Tasman Sea,0.49,Australia
-33.666139577974,151.32053375244,Bungan,Tasman Sea,Tasman Sea,0,Australia
57.038850294506,8.4671330451965,Bunker,Skagerrak,Skagerrak,0,Denmark
-33.541323130203,115.04033088684,Bunker Bay-Bommie,Geographe Bay,Geographe Bay,0,Australia
-33.544828460754,115.04608154297,Bunker Bay-Boneyards,Geographe Bay,Geographe Bay,0,Australia
57.01079,8.4413,Bunkers,Skagerrak,Skagerrak,0,Denmark
40.774289676407,-124.22549664974,Bunkers,North Pacific Ocean,Pacific Ocean,0,United States
52.13788701501,-7.366762161255,Bunmahon,North Atlantic Ocean,Atlantic Ocean,0.83,Ireland
-9.0276362131679,13.001868724823,Buraco,South Atlantic Ocean,Atlantic Ocean,0.36,Angola
8.2094090253608,-13.158960342407,Bureh Beach,North Atlantic Ocean,Atlantic Ocean,0,Sierra Leone
37.070185171825,-8.7761664390564,Burgau,North Atlantic Ocean,Atlantic Ocean,0,Portugal
-1.8399794514197,99.15135383606,Burger,Indian Ocean,Indian Ocean,0,Indonesia
-26.424656454463,153.10941696167,Burgess Creek,Coral Sea,Pacific Ocean,0,Australia
11.264875266143,-73.77021074295,Buritaca,Caribbean Sea,Caribbean Sea,1.08,Colombia
-28.09002,153.45767,Burleigh Heads,Coral Sea,Pacific Ocean,1.99,Australia
-28.078142923725,153.44911336899,Burleigh Heads-5Th Ave,Coral Sea,Pacific Ocean,2.09,Australia
33.815742076512,-118.39154720306,Burnout,North Pacific Ocean,Pacific Ocean,0.73,United States
-31.732243846782,115.71873396635,Burns Beach Reefy,Geographe Bay,Geographe Bay,1.2,Australia
37.896056330256,-8.799147605896,Burrinho,North Atlantic Ocean,Atlantic Ocean,3.06,Portugal
35.158148261147,129.16065663099,Busan,Korea Strait,Korea Strait,0,South Korea
-38.492294192361,144.91172790527,Bushrangers Bay,Bass Strait,Bass Strait,0,Australia
4.8080102811328,-1.9339765567565,Busua Beach,Gulf of Guinea,Atlantic Ocean,0.97,Ghana
-21.038859488272,55.722605958581,Butor,Indian Ocean,Indian Ocean,2.55,France
-33.745075067611,151.31697177887,Butterbox,Tasman Sea,Tasman Sea,0,Australia
58.83176,5.5518,Byberg,North Sea,Atlantic Ocean,1.57,Norway
58.833602943465,5.5534601211548,Bybergsanden,North Sea,Atlantic Ocean,1.64,Norway
-28.638246065482,153.6089515686,Byron Bay-The Wreck,Coral Sea,Pacific Ocean,0,Australia
-12.32458,-76.8374,Caballeros,South Pacific Ocean,Pacific Ocean,1.71,Peru
18.461861856431,-66.004657745361,Caballos,North Atlantic Ocean,Atlantic Ocean,0,United States
19.742792855009,-70.392150878906,Cabarete,North Atlantic Ocean,Atlantic Ocean,0,Dominican Republic
-28.33327,153.57258,Cabarita,Coral Sea,Pacific Ocean,0.08,Australia
40.140023888361,-8.8632202148438,Cabedelo,North Atlantic Ocean,Atlantic Ocean,0,Portugal
41.67859,-8.83112,Cabedelo De Viana,North Atlantic Ocean,Atlantic Ocean,0,Portugal
41.13797,-8.66674,Cabedelo Do Douro,North Atlantic Ocean,Atlantic Ocean,0.35,Portugal
40.139498965574,-8.8695287704468,Cabedelo o Point-Break),North Atlantic Ocean,Atlantic Ocean,0,Portugal
-5.4143333333333,12.205047222222,Cabgo,South Atlantic Ocean,Atlantic Ocean,1.04,Angola
-17.930069150093,122.20916748047,Cable Beach,Indian Ocean,Indian Ocean,0,Australia
-32.01783,115.7512,Cables,Geographe Bay,Geographe Bay,1.56,Australia
-4.25031,-81.23267,Cabo Blanco,South Pacific Ocean,Pacific Ocean,0.85,Peru
-38.016079673186,-57.524886131287,Cabo Corrientes,South Atlantic Ocean,Atlantic Ocean,0,Argentina
21.8237,-84.8806,Cabo De San Antonio,Caribbean Sea,Caribbean Sea,0,Cuba
41.219399,-8.714852,Cabo Do Mundo,North Atlantic Ocean,Atlantic Ocean,0,Portugal
32.652573390593,-17.005805969238,Cabo Girao,North Atlantic Ocean,Atlantic Ocean,0,Portugal
42.253197316947,-8.8719856739044,Cabo Home,North Atlantic Ocean,Atlantic Ocean,0,Spain
-9.6765685875011,13.198957443237,Cabo Ledo,South Atlantic Ocean,Atlantic Ocean,0,Angola
40.178020800683,-8.9038181304932,Cabo Mondego,North Atlantic Ocean,Atlantic Ocean,0,Portugal
-0.36096608285475,-80.484683276011,Cabo Pasado,South Pacific Ocean,Pacific Ocean,0.7,Ecuador
38.707599756135,-9.4903850555418,Cabo Raso,North Atlantic Ocean,Atlantic Ocean,0,Portugal
-44.341529598885,-65.247802734375,Cabo Raso,South Atlantic Ocean,Atlantic Ocean,0,Argentina
36.483520173804,-4.7418880462646,Cabopino,Alboran Sea,Mediterranean Sea,0,Spain
41.506906129241,2.4051475524902,Cabrera,Balearic Sea,Mediterranean Sea,0,Spain
33.708477203983,-118.28273534775,Cabrillo Beach,North Pacific Ocean,Pacific Ocean,0,United States
33.704224029917,-118.29070150852,Cabrillo Point,North Pacific Ocean,Pacific Ocean,0,United States
-32.588390988281,-71.448249220848,Cachagua,South Pacific Ocean,Pacific Ocean,0.86,Chile
-21.048758124692,55.218282938004,Cachera,Indian Ocean,Indian Ocean,0,France
-3.8389061138427,-32.411127090454,Cachorro,South Atlantic Ocean,Atlantic Ocean,0,Brazil
-3.84779,-32.43434,Cacimba Do Padre,South Atlantic Ocean,Atlantic Ocean,0,Brazil
-6.2115301098218,-35.077500343323,Cacimbinhas,South Atlantic Ocean,Atlantic Ocean,0,Brazil
-32.1404,133.1091,Cactus,Great Australian Bight,Great Australian Bight,0,Australia
36.52988,-6.30579,Cadiz,North Atlantic Ocean,Atlantic Ocean,0,Spain
51.872718706133,-5.2536588907242,Caerfai Bay,Irish Sea,Irish Sea,0,United Kingdom
40.997585277049,-8.6483967304232,Cagalhotos,North Atlantic Ocean,Atlantic Ocean,1.03,Portugal
32.646159570187,-16.901671886443,Cais Do Funchal,North Atlantic Ocean,Atlantic Ocean,0,Portugal
-29.349421141567,-49.729850292206,Cal,South Atlantic Ocean,Atlantic Ocean,0,Brazil
38.878639310414,8.8545083999634,Cala Cipolla,Mediterranean Sea,Mediterranean Sea,0,Italy
38.523911757364,-0.16676902770996,Cala Finestrat,Mediterranean Sea,Mediterranean Sea,0,Spain
39.746134074457,3.4321975708008,Cala Mesquida(Palma),Balearic Sea,Mediterranean Sea,1.66,Spain
39.172392510334,9.5715808868408,Cala Pira,Tyrrhenian Sea,Mediterranean Sea,0,Italy
32.267666403442,-117.01932907104,Calafia,North Pacific Ocean,Pacific Ocean,0,Mexico
50.96193,1.82815,Calais,North Sea,Atlantic Ocean,0,France
37.602672258715,-0.7294750213623,Calblanque,Mediterranean Sea,Mediterranean Sea,0,Spain
38.625051643095,-27.997970581055,Caldeira,North Atlantic Ocean,Atlantic Ocean,0,Portugal
-27.723689553971,-48.504595756531,Caldeirao,South Atlantic Ocean,Atlantic Ocean,1.05,Brazil
9.91314,-84.72491,Caldera,North Pacific Ocean,Pacific Ocean,0.62,Costa Rica
29.117393426901,-13.639558553696,Caleta De Caballo,North Atlantic Ocean,Atlantic Ocean,0.43,Spain
29.118049533025,-13.561849594116,Caleta De Famara,North Atlantic Ocean,Atlantic Ocean,2.2,Spain
-33.032133740226,-71.592708975077,Caleta Portales,South Pacific Ocean,Pacific Ocean,3.91,Chile
-18.749867876948,-70.338597893715,Caleta Vitor,South Pacific Ocean,Pacific Ocean,0.33,Chile
28.750503583991,-13.932273387909,Caletta,North Atlantic Ocean,Atlantic Ocean,0,Spain
15.602205549077,-61.366882324219,Calibishie,Caribbean Sea,Caribbean Sea,0,Dominica
10.946585056517,125.83053588867,Calicoan Island,Philippine Sea,Pacific Ocean,0,Philippines
17.976804347706,-65.965701341629,California,Caribbean Sea,Caribbean Sea,0,United States
38.354369991322,-0.42739391326904,Calita,Mediterranean Sea,Mediterranean Sea,0,Spain
-35.007942228877,150.72561979294,Callala,Tasman Sea,Tasman Sea,1.54,Australia
52.837461879333,4.6910119056702,Callantsoog,North Sea,Atlantic Ocean,0,Netherlands
30.340268934861,-87.087292671204,Calle Hermosa,Gulf of Mexico,Gulf of Mexico,0,United States
-26.80756,153.13439,Caloundra,Coral Sea,Pacific Ocean,0.75,Australia
38.640901699492,0.047378540039062,Calpe Rock,Mediterranean Sea,Mediterranean Sea,0,Spain
-28.6152,-48.8607,Camacho,South Atlantic Ocean,Atlantic Ocean,0,Brazil
-0.8688307602316,-46.430797576904,Camaracu,South Atlantic Ocean,Atlantic Ocean,0,Brazil
9.8621925521977,-85.444182157516,Camaronal,North Pacific Ocean,Pacific Ocean,1.39,Costa Rica
18.864706878398,-95.80078125,Camaronera,Bahia De Campeche,Bahia De Campeche,0,Mexico
50.933084361045,0.78483581542967,Camber Sands,English Channel,Atlantic Ocean,0,United Kingdom
-22.966612385709,-43.052587509155,Camboinhas,South Atlantic Ocean,Atlantic Ocean,0,Brazil
-23.778825783076,-45.649137496948,Camburi,South Atlantic Ocean,Atlantic Ocean,0,Brazil
7.2496645624646,-80.488500595093,Cambutal,North Pacific Ocean,Pacific Ocean,0,Panama
-36.378760893149,150.07815599442,Camel Rock,Tasman Sea,Tasman Sea,1.45,Australia
41.035219581205,-124.12345468998,Camel Rock,North Pacific Ocean,Pacific Ocean,1.01,United States
-12.074511275702,-77.182270288467,Camotal,South Pacific Ocean,Pacific Ocean,3.57,Peru
44.803214746031,13.966541290283,Camp Kazela(Medulin),Adriatic Sea,Mediterranean Sea,0,Croatia
33.215999479924,-117.40580320358,Camp Pendelton,North Pacific Ocean,Pacific Ocean,0.08,United States
-27.693864330517,-48.482687473297,Campeche Rights,South Atlantic Ocean,Atlantic Ocean,0,Brazil
43.58311,-8.21543,Campelo,North Atlantic Ocean,Atlantic Ocean,1.37,Spain
52.737524281629,4.6409565210342,Camperduin,North Sea,Atlantic Ocean,0,Netherlands
28.237365439348,-14.213894605637,Campo De Futbol,North Atlantic Ocean,Atlantic Ocean,0.82,Spain
36.429259118195,-6.2358999252319,Camposoto,North Atlantic Ocean,Atlantic Ocean,0,Spain
-33.948059299168,18.376865386963,Camps Bay Shorey,South Atlantic Ocean,Atlantic Ocean,1.88,South Africa
34.406856545845,-119.8431801796,Campus Point,North Pacific Ocean,Pacific Ocean,0,United States
10.625442823063,-66.714960336685,Camuri Grande,Caribbean Sea,Caribbean Sea,0,Venezuela
-22.968074379053,-43.048167228699,Canal De Camboinhas,South Atlantic Ocean,Atlantic Ocean,0,Brazil
-20.317524128701,-40.2885389328,Canal De Vitoria,South Atlantic Ocean,Atlantic Ocean,0,Brazil
-27.4309658424,-48.479661941528,Canasvieiras,South Atlantic Ocean,Atlantic Ocean,0,Brazil
28.352256947673,-16.369521617889,Candelaria,North Atlantic Ocean,Atlantic Ocean,2.31,Spain
42.693,3.03586,Canet Plage,Golfe Du Lion,Golfe Du Lion,2.86,France
-8.65955,115.13018,Canggu,Selat Bali,Selat Bali,0.84,Indonesia
41.11499,-8.66369,Canide Norte,North Atlantic Ocean,Atlantic Ocean,0.19,Portugal
41.112297222222,-8.6667388888889,Canidelo,North Atlantic Ocean,Atlantic Ocean,0,Portugal
42.374722222222,11.154166666667,Cannelle,Tyrrhenian Sea,Mediterranean Sea,0,Italy
43.547055069276,6.9800519943237,Cannes l Aerospatiale,Mediterranean Sea,Mediterranean Sea,2.25,France
45.890083,-123.963952,Cannon Beach,North Pacific Ocean,Pacific Ocean,0,United States
22.224534885729,-159.57124471664,Cannons,North Pacific Ocean,Pacific Ocean,0,United States
-0.46028357369615,-80.453674793243,Canoa,South Pacific Ocean,Pacific Ocean,0.07,Ecuador
-26.639403447062,-48.682501316071,Canoas,South Atlantic Ocean,Atlantic Ocean,0.57,Brazil
21.275711,-157.826205,Canoes,North Pacific Ocean,Pacific Ocean,0,United States
-17.84552868399,177.18784332275,Canoes,South Pacific Ocean,Pacific Ocean,0,Fiji
36.183601862255,-6.0277712345123,Canos De La Meca,North Atlantic Ocean,Atlantic Ocean,0,Spain
28.138690085855,-80.579702407122,Canova Beach,North Atlantic Ocean,Atlantic Ocean,1.14,United States
39.36719,-9.33959,Cantinho Da Baia,North Atlantic Ocean,Atlantic Ocean,0.33,Portugal
-23.033294788646,-43.467493057251,Canto Do Recreio,South Atlantic Ocean,Atlantic Ocean,0,Brazil
42.050619113659,-8.8873332738876,Cantos Mougas,North Atlantic Ocean,Atlantic Ocean,0,Spain
50.931211357782,1.7152297496796,Cap Blanc Nez,North Sea,Atlantic Ocean,0,France
48.168947679377,-4.5563864707947,Cap De La Chevre,Bay of Biscay,Atlantic Ocean,0,France
44.039231511913,-1.3427352905273,Cap De ĺHomy,Bay of Biscay,Atlantic Ocean,0,France
-33.019373862392,-71.562366485596,Cap Ducal,South Pacific Ocean,Pacific Ocean,5.42,Chile
44.631527801316,-1.2595653533936,Cap Ferret,Bay of Biscay,Atlantic Ocean,0,France
44.621876277703,-1.2538146972656,Cap Ferret Chenal,Bay of Biscay,Atlantic Ocean,0,France
48.685634203656,-2.3188018798828,Cap Frehel,English Channel,Atlantic Ocean,0,France
50.870552000000004,1.590659,Cap Gris-Nez,English Channel,Atlantic Ocean,0,France
50.870639605025,1.5907645225525,Cap Griz Nez,English Channel,Atlantic Ocean,0,France
-0.62734542439047,8.7056350708004,Cap Lopez,South Atlantic Ocean,Atlantic Ocean,0,Gabon
43.17634330215,5.6716060638428,Cap Saint Louis,Mediterranean Sea,Mediterranean Sea,0,France
31.38571,-9.83135,Cap Sim,North Atlantic Ocean,Atlantic Ocean,0,Morocco
12.362975097944,-16.737327575684,Cap Skirring,North Atlantic Ocean,Atlantic Ocean,0,Senegal
43.178557458714,5.6740629673004,Cap St Louis Left,Mediterranean Sea,Mediterranean Sea,0.17,France
-2.1953335174142,-80.861434936523,Capaes,South Pacific Ocean,Pacific Ocean,5.68,Ecuador
-29.6571,-49.9544,Capao Da Canoa,South Atlantic Ocean,Atlantic Ocean,1.35,Brazil
-29.686971564494,-49.972558021545,Capao Novo,South Atlantic Ocean,Atlantic Ocean,1.23,Brazil
43.64491,-1.44555,Capbreton,Bay of Biscay,Atlantic Ocean,1.16,France
43.626275102229,-1.4568901062012,Capbreton La Pointe,Bay of Biscay,Atlantic Ocean,0.71,France
43.650578165941,-1.4466762542725,Capbreton Le Prevent,Bay of Biscay,Atlantic Ocean,0.93,France
26.127083159668,-14.501609802246,Cape Boujdour,North Atlantic Ocean,Atlantic Ocean,0,Morocco
-37.800696778277,148.74406814575,Cape Conran,Bass Strait,Bass Strait,0.05,Australia
-21.756251304092,13.965747356415,Cape Cross,South Atlantic Ocean,Atlantic Ocean,0,Namibia
47.3530419161,-124.31341409683,Cape Elizabeth,North Pacific Ocean,Pacific Ocean,0,United States
-38.487188408813,144.94039535522,Cape Flinders,Bass Strait,Bass Strait,0.22,Australia
-34.426062707436,20.865526199341,Cape Infanta,Indian Ocean,Indian Ocean,0,South Africa
45.335057791165,-123.97373914719,Cape Lookout,North Pacific Ocean,Pacific Ocean,0,United States
40.411143399501,-124.39390182495,Cape Mendocino,North Pacific Ocean,Pacific Ocean,0,United States
-38.059242754122,140.65928936005,Cape Northumberland,Great Australian Bight,Great Australian Bight,0,Australia
8.7383371914179,98.220520019531,Cape Pakarang,Andaman Sea,Indian Ocean,0,Thailand
-34.187523858867,24.859485626221,Cape Saint Francis,Indian Ocean,Indian Ocean,0,South Africa
42.319414997409,-124.42409276962,Cape Sebastian,North Pacific Ocean,Pacific Ocean,0,United States
-34.17329,24.83781,Cape St Francis,Indian Ocean,Indian Ocean,0,South Africa
-32.71725496646,17.919301986694,Cape St Martin Reef,South Atlantic Ocean,Atlantic Ocean,0,South Africa
4.7450548680415,-2.0831537246704,Cape Three Points,Gulf of Guinea,Atlantic Ocean,0,Ghana
31.360407814744,131.33185386659,Cape Toi,Philippine Sea,Pacific Ocean,0,Japan
-33.90688,18.39523,Cape Town,South Atlantic Ocean,Atlantic Ocean,0,South Africa
-28.126059200173,32.5577044487,Cape Vidal,Indian Ocean,Indian Ocean,0,South Africa
39.689719189695,-74.142844676971,Cape may Ave,North Atlantic Ocean,Atlantic Ocean,0,United States
40.978482240183,-8.6500704288487,Capela De Paramos,North Atlantic Ocean,Atlantic Ocean,1.15,Portugal
36.971169663037,-121.94769501687,Capitola Jetty,Monterey Bay,Monterey Bay,2.14,United States
-12.171424434277,-77.035735845566,Caplina,South Pacific Ocean,Pacific Ocean,0.29,Peru
42.820257495607,10.312439203262,Capo Bianco(Elba Island),Tyrrhenian Sea,Mediterranean Sea,0,Italy
41.93561499504,8.6198043823242,Capo Di Feno,Mediterranean Sea,Mediterranean Sea,0,France
40.029191783826,8.3890056610107,Capo Mannu 1,Mediterranean Sea,Mediterranean Sea,0,Italy
40.03004616453,8.3834052085876,Capo Mannu 2,Mediterranean Sea,Mediterranean Sea,0,Italy
41.925398316105,16.109218597412,Capo Vieste,Adriatic Sea,Mediterranean Sea,0,Italy
16.64427,120.30779,Car Rille,South China Sea,Pacific Ocean,0.34,Philippines
17.762687556084,-64.833991527557,Carambola,Caribbean Sea,Caribbean Sea,0,United States
-4.5661152380474,55.453888177872,Carana Beach,Indian Ocean,Indian Ocean,0,Seychelles
16.215783087476,-61.394668668509,Caravelle,Caribbean Sea,Caribbean Sea,0,France
50.198770234067,-5.4611921310423,Carbis Bay,Bristol Channel,Bristol Channel,2.28,United Kingdom
45.083339155636,-1.1923599243164,Carcans,Bay of Biscay,Atlantic Ocean,0.43,France
38.67928,-9.33398,Carcavelos,North Atlantic Ocean,Atlantic Ocean,0,Portugal
-37.976337533793,-57.541344165802,Cardiel,South Atlantic Ocean,Atlantic Ocean,1.67,Argentina
33.01497,-117.28,Cardiff Reef,North Pacific Ocean,Pacific Ocean,0.84,United States
-28.60588,-48.82511,Cardoso,South Atlantic Ocean,Atlantic Ocean,0,Brazil
-28.607516164265,-48.822995424271,Cardozo,South Atlantic Ocean,Atlantic Ocean,0,Brazil
-41.737759912043,-73.733367919926,Carelmapu,South Pacific Ocean,Pacific Ocean,0.04,Chile
9.354482,-82.227814,Careneros,Caribbean Sea,Caribbean Sea,0,Panama
9.3482679701125,-82.228830456734,Carenerro Point Break,Caribbean Sea,Caribbean Sea,0,Panama
35.287666201359,32.93529510498,Caretta Caretta,Mediterranean Sea,Mediterranean Sea,0.68,Cyprus
9.91842,126.11547,Caridad,Philippine Sea,Pacific Ocean,0,Philippines
36.549086661597,-121.92935943604,Carmel,North Pacific Ocean,Pacific Ocean,0,United States
43.54157,3.97159,Carnon,Golfe Du Lion,Golfe Du Lion,0,France
-0.89050045473972,-89.614384174347,Carola,South Pacific Ocean,Pacific Ocean,0.7,Ecuador
34.039422532546,-77.887723445892,Carolina Beach,North Atlantic Ocean,Atlantic Ocean,0,United States
48.758324806225,-1.5729653835297,Carolles,English Channel,Atlantic Ocean,0,France
18.362997593747,-64.603042602539,Carot Bay,Caribbean Sea,Caribbean Sea,0,British Virgin Islands
-41.866732516133,148.29306006432,Carparks,Tasman Sea,Tasman Sea,0.58,Australia
29.250272426288,-81.017367839813,Carpet Muncher,North Atlantic Ocean,Atlantic Ocean,1.5,United States
34.391576975052,-119.52198028564,Carpinteria Beach,North Pacific Ocean,Pacific Ocean,0.8,United States
37.199945480203,-8.9062213897705,Carrapateira,North Atlantic Ocean,Atlantic Ocean,0.49,Portugal
37.361425501905,-8.8413333892822,Carriagem,North Atlantic Ocean,Atlantic Ocean,0.19,Portugal
15.858676792629,-97.078993320465,Carrizalillo,North Pacific Ocean,Pacific Ocean,0.04,Mexico
53.735309585211,-9.8938751220703,Carrowniskey,North Atlantic Ocean,Atlantic Ocean,0,Ireland
53.7356567,-9.8953054,Carrownisky,North Atlantic Ocean,Atlantic Ocean,0,Ireland
10.398565292499,-75.564469099045,Cartagena Jetty,Caribbean Sea,Caribbean Sea,0,Colombia
36.850539334694,10.33392906189,Carthage Neptune,Mediterranean Sea,Mediterranean Sea,0,Tunisia
38.306355504637,-8.780415058136,Carvalhal,North Atlantic Ocean,Atlantic Ocean,2.78,Portugal
0.85297667153825,-79.921771287916,Casa Blanca,North Pacific Ocean,Pacific Ocean,0.38,Ecuador
18.493508389072,-66.630942821503,Casa Del Juez,North Atlantic Ocean,Atlantic Ocean,0,United States
-35.012335958311,118.03156256676,Caseys,Indian Ocean,Indian Ocean,0,Australia
-12.556333341823,-37.988351583481,Casinha,South Atlantic Ocean,Atlantic Ocean,0,Brazil
34.011795319651,35.642395019531,Casino,Mediterranean Sea,Mediterranean Sea,3.56,Lebanon
51.349699662509,3.278431892395,Casino Break,North Sea,Atlantic Ocean,1.37,Belgium
39.94215,-74.07002,Casino Pier,North Atlantic Ocean,Atlantic Ocean,0.06,United States
39.360647975554,-123.81660461426,Caspar,North Pacific Ocean,Pacific Ocean,0.04,United States
33.171965176758,-117.36766910553,Cassidy,North Pacific Ocean,Pacific Ocean,0.45,United States
0.19409,73.23131,Castaways,Laccadive Sea,Indian Ocean,0,Maldives
-26.431304923226,153.10830116272,Castaways Beach,Coral Sea,Pacific Ocean,0,Australia
-33.772012900009,151.29512786867,Castel Corner-Curl Curl,Tasman Sea,Tasman Sea,0.83,Australia
37.101090886504,-8.9453601837158,Castelejo,North Atlantic Ocean,Atlantic Ocean,1.29,Portugal
-23.857581945905,-45.288906097412,Castelhanos,South Atlantic Ocean,Atlantic Ocean,0,Brazil
-28.256232429183,-48.672695159912,Castelinho,South Atlantic Ocean,Atlantic Ocean,0.28,Brazil
10.394977379197,-75.555365681648,Castillogrande,Caribbean Sea,Caribbean Sea,0,Colombia
-33.818108672533,151.2611979246,Castle Rock,Tasman Sea,Tasman Sea,2.85,Australia
55.167320900831,-6.7859029769897,Castlerock,Inner Seas,Inner Seas,1.89,United Kingdom
36.458400678461,34.144917726517,Castles,Mediterranean Sea,Mediterranean Sea,0.12,Turkey
39.412971118285,-74.352561235428,Castles,North Atlantic Ocean,Atlantic Ocean,0,United States
52.557464086455,4.6053314208984,Castricum Aan Zee,North Sea,Atlantic Ocean,0.47,Netherlands
-28.271881109404,153.58131408691,Casuarina Beach,Coral Sea,Pacific Ocean,0,Australia
51.566773662953,-4.0323257446289,Caswell Bay,Bristol Channel,Bristol Channel,0,United Kingdom
51.57001,-4.03145,Caswell Beach,Bristol Channel,Bristol Channel,0,United Kingdom
-38.50563,145.14353,Cat Bay,Bass Strait,Bass Strait,0,Australia
-38.507256756666,144.00434732437,Cathedral Rock,Bass Strait,Bass Strait,2.68,Australia
-33.157960250467,151.63098335266,Catherine Hill Bay,Tasman Sea,Tasman Sea,0.23,Australia
13.218811841115,-59.529333114624,Cattlewash,Caribbean Sea,Caribbean Sea,1.89,Barbados
-32.709771530459,-71.496299654244,Cau Cau,South Pacific Ocean,Pacific Ocean,1.89,Chile
9.30347,126.20562,Cauit Point,Philippine Sea,Pacific Ocean,0,Philippines
-22.405111381058,-41.79835908115,Cavaleiros,South Atlantic Ocean,Atlantic Ocean,0,Brazil
-28.41903232339,-48.744277954102,Cavalinho,South Atlantic Ocean,Atlantic Ocean,0,Brazil
41.502953002002,-8.7982678413391,Cavalos De Fao,North Atlantic Ocean,Atlantic Ocean,0,Portugal
-20.22856661782,-70.148724317551,Cavancha,South Pacific Ocean,Pacific Ocean,0.15,Chile
38.99064,-9.42312,Cave,North Atlantic Ocean,Atlantic Ocean,0.41,Portugal
-35.162564605981,150.66734075546,Cave Beach,Tasman Sea,Tasman Sea,1.7,Australia
-29.88825,31.0514,Cave Rock,Indian Ocean,Indian Ocean,0,South Africa
-32.522888883068,115.69998264313,Caves,Geographe Bay,Geographe Bay,0,Australia
-6.9860117509409,39.542410194353,Caves,Indian Ocean,Indian Ocean,0,Tanzania
-35.163704834816,150.67474365234,Caves Cungee,Tasman Sea,Tasman Sea,1.58,Australia
-33.112320762404,151.64746284485,Caves Point,Tasman Sea,Tasman Sea,1.08,Australia
38.697534970946,-9.2770957946777,Caxias,North Atlantic Ocean,Atlantic Ocean,0,Portugal
22.524879,-78.49029,Cayo Coco,North Atlantic Ocean,Atlantic Ocean,0,Cuba
43.315373908899,-8.6100733280182,Cayon,North Atlantic Ocean,Atlantic Ocean,1.1,Spain
54.244434499878,-0.35588622093201,Cayton Bay,North Sea,Atlantic Ocean,1.91,United Kingdom
35.445567911049,-120.90415477753,Cayucos,North Pacific Ocean,Pacific Ocean,1.79,United States
-8.7271887230228,116.765732647,Cement Factory,Bali Sea,Bali Sea,0,Indonesia
15.76342726476,121.59942626953,Cemento,Philippine Sea,Pacific Ocean,0,Philippines
9.7897569762093,126.17203474045,Cemeteries,Philippine Sea,Pacific Ocean,0,Philippines
-34.096773380445,18.510707616806,Cemetery,South Atlantic Ocean,Atlantic Ocean,0.45,South Africa
13.483035261192,-89.323988913959,Cemetery,North Pacific Ocean,Pacific Ocean,0,El Salvador
-29.059152037795,167.9697561264,Cemetery Bay,South Pacific Ocean,Pacific Ocean,0,Australia
-28.604341892552,-48.81199836731,Cemiterio,South Atlantic Ocean,Atlantic Ocean,0,Brazil
-8.7035534647353,115.44085979462,Ceningan Point,Bali Sea,Bali Sea,0,Indonesia
43.423206302426,-1.6221570968628,Cenitz,Bay of Biscay,Atlantic Ocean,1.83,France
-11.066475443782,-77.637548446655,Centinela,South Pacific Ocean,Pacific Ocean,2.15,Peru
-13.02844,-76.48464,Cerro Azul,South Pacific Ocean,Pacific Ocean,0.81,Peru
43.748715162772,13.176577091217,Cesano Piramidi,Adriatic Sea,Mediterranean Sea,0.82,Italy
-2.6398290595926,-80.401559472084,Chabela,Golfo De Guayaquil,Golfo De Guayaquil,1.39,Ecuador
15.6849,-96.6251,Chacahua,North Pacific Ocean,Pacific Ocean,0.47,Mexico
21.187562927181,-105.22988855839,Chacala,North Pacific Ocean,Pacific Ocean,0.09,Mexico
21.13121197214,-86.74663066864,Chacmool,Caribbean Sea,Caribbean Sea,0,Mexico
10.710159109282,-62.988148927689,Chaguarama De Sotillo,Caribbean Sea,Caribbean Sea,0.33,Venezuela
43.418121603912,39.920834898949,Chaika,Black Sea,Black Sea,0,Russia
50.288461834515,-3.8987731933594,Challabrough,English Channel,Atlantic Ocean,0.33,United Kingdom
54.769008626136,18.484497070312,Chalupy,Baltic Sea,Atlantic Ocean,1.64,Poland
45.446131910126,-73.262425661087,Chambly Rapids,Saint Lawrence River,Saint Lawrence River,19.95,Canada
8.608963772961,-79.740582704546,Chame Banks,Golfo De Panama,Golfo De Panama,0,Panama
14.292788785745,-91.915537118912,Champerico,North Pacific Ocean,Pacific Ocean,0,Guatemala
29.847642013764,-88.83544921875,Chandeleur Islands,Gulf of Mexico,Gulf of Mexico,0,United States
17.974625551645,-65.934139788152,Channel,Caribbean Sea,Caribbean Sea,0,United States
-38.206960158392,-57.688179016113,Chapadmalal,South Atlantic Ocean,Atlantic Ocean,0,Argentina
50.300524924617,-5.2353286743164,Chapel Porth,Bristol Channel,Bristol Channel,1.08,United Kingdom
-34.073697287181,18.360493183136,Chapmans Peak Mystery Lefts,South Atlantic Ocean,Atlantic Ocean,2.5,South Africa
34.262139582165,-6.6659545898439,Charatan,North Atlantic Ocean,Atlantic Ocean,0.77,Morocco
18.45394,-65.96723,Chatarra,North Atlantic Ocean,Atlantic Ocean,0.15,United States
18.454310599108,-65.964789390564,Chatarras,North Atlantic Ocean,Atlantic Ocean,0.08,United States
16.989635865564,94.453062415123,Chaungtha Beach Burma-Brother Sister Twin Pagoda,Bay of Bengal,Indian Ocean,0,Myanmar (Burma)
9.5790843358825,125.7625579834,Che Ches,NA,NA,0.27,Philippines
-31.525117623233,159.07559931278,Cheese Graters,South Pacific Ocean,Pacific Ocean,0,Australia
15.236189647326,120.0109577179,Chelseas Point,South China Sea,Pacific Ocean,0.86,Philippines
20.330784377134002,-86.920309066772,Chen Rio,Caribbean Sea,Caribbean Sea,0.2,Mexico
-33.462523025893,-71.65961265564,Chepica,South Pacific Ocean,Pacific Ocean,1.14,Chile
4.124321137355,103.39787006378,Cherating,South China Sea,Pacific Ocean,4.38,Malaysia
36.611393970228,2.2041320800781,Cherchell Tizirine,Mediterranean Sea,Mediterranean Sea,0,Algeria
11.912683333333,-86.62,Cherrios,North Pacific Ocean,Pacific Ocean,0,Nicaragua
33.830060987356,-78.632723093033,Cherry Grove Pier,North Atlantic Ocean,Atlantic Ocean,0,United States
44.14014928522,-64.50665473938,Cherry Hill,North Atlantic Ocean,Atlantic Ocean,0,Canada
12.061942193259,-61.756725311279,Cherry Hill,Caribbean Sea,Caribbean Sea,0,Grenada
32.981974132614,-117.27396726608,Cherry Hill,North Pacific Ocean,Pacific Ocean,0.36,United States
49.11852,-125.89423,Chesterman Beach,North Pacific Ocean,Pacific Ocean,0,Canada
49.11775934382,-125.89928627014,Chestermans Beach-North,North Pacific Ocean,Pacific Ocean,0,Canada
22.232897192512,113.95719051361,"Cheung Sha Beach,Lantau",South China Sea,Pacific Ocean,0,China
38.894506631693,8.8790130615234,Chia,Mediterranean Sea,Mediterranean Sea,0,Italy
44.309961575626,9.3313032388687,Chiavari Entella,Ligurian Sea,Mediterranean Sea,1.04,Italy
36.115048815624,-75.717580318451,Chicahauk,Albemarle Sound,Albemarle Sound,1.37,United States
-8.8240100617253,13.20303440094,Chicala,South Atlantic Ocean,Atlantic Ocean,0,Angola
-7.704094,-79.443689,Chicama,South Pacific Ocean,Pacific Ocean,0.04,Peru
-32.028452692936,115.52604675293,Chicken Reef,Geographe Bay,Geographe Bay,0,Australia
-35.526882673909,138.6950969696,Chicken Run(Bashams Beach),Great Australian Bight,Great Australian Bight,3.84,Australia
4.374111,73.662745,Chickens,Laccadive Sea,Indian Ocean,0,Maldives
11.904294444444,-86.615625,Chiggas,North Pacific Ocean,Pacific Ocean,0,Nicaragua
-31.753517193552,-71.515252143145,Chigualoco,South Pacific Ocean,Pacific Ocean,1.8,Chile
-38.499213295276,142.67987251282,Childers Cove,Great Australian Bight,Great Australian Bight,0,Australia
48.433437646456,-124.09358024597,China Beach,Salish Sea,Salish Sea,0.27,Canada
21.26383060795,-157.71175503731,China Walls,North Pacific Ocean,Pacific Ocean,0,United States
-27.708701973648,114.16204690933,Chinaman,Indian Ocean,Indian Ocean,4.94,Australia
-35.285389208733,136.85450077057,Chinamans,Gulf St Vincent,Gulf St Vincent,0,Australia
30.736216489217,131.07434302566,Chinbotsu,Philippine Sea,Pacific Ocean,0,Japan
24.684632305484,121.83790683746,Chingshuei,Philippine Sea,Pacific Ocean,0,Taiwan
-34.77715181089,150.81928253174,Chips,Tasman Sea,Tasman Sea,0,Australia
10.622205529347,-66.195244789124,Chirere,Caribbean Sea,Caribbean Sea,0,Venezuela
-35.536687647875,138.66052865982,Chiton Rocks,Great Australian Bight,Great Australian Bight,4.37,Australia
19.736001685118,-155.04348814487,Chocks,North Pacific Ocean,Pacific Ocean,0.8,United States
